[
    {
        "addr": "笠間市石井",
        "isArea": false,
        "pref": "茨城県",
        "scale": 40,
        "changedScale": "4",
        "lat": "36.39",
        "lon": "140.24"
    },
    {
        "addr": "笠間市笠間",
        "isArea": false,
        "pref": "茨城県",
        "scale": 40,
        "changedScale": "4",
        "lat": "36.38",
        "lon": "140.25"
    },
    {
        "addr": "笠間市中央",
        "isArea": false,
        "pref": "茨城県",
        "scale": 30,
        "changedScale": "3",
        "lat": "36.35",
        "lon": "140.30"
    },
    {
        "addr": "笠間市下郷",
        "isArea": false,
        "pref": "茨城県",
        "scale": 30,
        "changedScale": "3",
        "lat": "36.30",
        "lon": "140.29"
    },
    {
        "addr": "城里町小勝",
        "isArea": false,
        "pref": "茨城県",
        "scale": 40,
        "changedScale": "4",
        "lat": "36.46",
        "lon": "140.27"
    },
    {
        "addr": "城里町石塚",
        "isArea": false,
        "pref": "茨城県",
        "scale": 30,
        "changedScale": "3",
        "lat": "36.48",
        "lon": "140.38"
    },
    {
        "addr": "城里町阿波山",
        "isArea": false,
        "pref": "茨城県",
        "scale": 30,
        "changedScale": "3",
        "lat": "36.52",
        "lon": "140.37"
    },
    {
        "addr": "水戸市金町",
        "isArea": false,
        "pref": "茨城県",
        "scale": 30,
        "changedScale": "3",
        "lat": "36.38",
        "lon": "140.47"
    },
    {
        "addr": "水戸市千波町",
        "isArea": false,
        "pref": "茨城県",
        "scale": 30,
        "changedScale": "3",
        "lat": "36.37",
        "lon": "140.45"
    },
    {
        "addr": "水戸市内原町",
        "isArea": false,
        "pref": "茨城県",
        "scale": 30,
        "changedScale": "3",
        "lat": "36.36",
        "lon": "140.36"
    },
    {
        "addr": "水戸市栗崎町",
        "isArea": false,
        "pref": "茨城県",
        "scale": 20,
        "changedScale": "2",
        "lat": "36.35",
        "lon": "140.52"
    },
    {
        "addr": "日立市助川小学校",
        "isArea": false,
        "pref": "茨城県",
        "scale": 30,
        "changedScale": "3",
        "lat": "36.59",
        "lon": "140.65"
    },
    {
        "addr": "日立市十王町友部",
        "isArea": false,
        "pref": "茨城県",
        "scale": 20,
        "changedScale": "2",
        "lat": "36.68",
        "lon": "140.68"
    },
    {
        "addr": "日立市役所",
        "isArea": false,
        "pref": "茨城県",
        "scale": 20,
        "changedScale": "2",
        "lat": "36.60",
        "lon": "140.65"
    },
    {
        "addr": "常陸太田市町屋町",
        "isArea": false,
        "pref": "茨城県",
        "scale": 30,
        "changedScale": "3",
        "lat": "36.61",
        "lon": "140.57"
    },
    {
        "addr": "常陸太田市町田町",
        "isArea": false,
        "pref": "茨城県",
        "scale": 20,
        "changedScale": "2",
        "lat": "36.62",
        "lon": "140.48"
    },
    {
        "addr": "常陸太田市大中町",
        "isArea": false,
        "pref": "茨城県",
        "scale": 20,
        "changedScale": "2",
        "lat": "36.73",
        "lon": "140.49"
    },
    {
        "addr": "常陸太田市金井町",
        "isArea": false,
        "pref": "茨城県",
        "scale": 20,
        "changedScale": "2",
        "lat": "36.54",
        "lon": "140.53"
    },
    {
        "addr": "常陸太田市高柿町",
        "isArea": false,
        "pref": "茨城県",
        "scale": 20,
        "changedScale": "2",
        "lat": "36.55",
        "lon": "140.46"
    },
    {
        "addr": "常陸大宮市中富町",
        "isArea": false,
        "pref": "茨城県",
        "scale": 30,
        "changedScale": "3",
        "lat": "36.54",
        "lon": "140.41"
    },
    {
        "addr": "常陸大宮市北町",
        "isArea": false,
        "pref": "茨城県",
        "scale": 30,
        "changedScale": "3",
        "lat": "36.55",
        "lon": "140.41"
    },
    {
        "addr": "常陸大宮市山方",
        "isArea": false,
        "pref": "茨城県",
        "scale": 30,
        "changedScale": "3",
        "lat": "36.63",
        "lon": "140.40"
    },
    {
        "addr": "常陸大宮市上小瀬",
        "isArea": false,
        "pref": "茨城県",
        "scale": 30,
        "changedScale": "3",
        "lat": "36.61",
        "lon": "140.32"
    },
    {
        "addr": "常陸大宮市野口",
        "isArea": false,
        "pref": "茨城県",
        "scale": 20,
        "changedScale": "2",
        "lat": "36.56",
        "lon": "140.32"
    },
    {
        "addr": "常陸大宮市高部",
        "isArea": false,
        "pref": "茨城県",
        "scale": 20,
        "changedScale": "2",
        "lat": "36.66",
        "lon": "140.30"
    },
    {
        "addr": "那珂市瓜連",
        "isArea": false,
        "pref": "茨城県",
        "scale": 30,
        "changedScale": "3",
        "lat": "36.50",
        "lon": "140.44"
    },
    {
        "addr": "那珂市福田",
        "isArea": false,
        "pref": "茨城県",
        "scale": 20,
        "changedScale": "2",
        "lat": "36.46",
        "lon": "140.49"
    },
    {
        "addr": "小美玉市小川",
        "isArea": false,
        "pref": "茨城県",
        "scale": 30,
        "changedScale": "3",
        "lat": "36.18",
        "lon": "140.37"
    },
    {
        "addr": "小美玉市堅倉",
        "isArea": false,
        "pref": "茨城県",
        "scale": 30,
        "changedScale": "3",
        "lat": "36.24",
        "lon": "140.35"
    },
    {
        "addr": "小美玉市上玉里",
        "isArea": false,
        "pref": "茨城県",
        "scale": 30,
        "changedScale": "3",
        "lat": "36.16",
        "lon": "140.34"
    },
    {
        "addr": "高萩市安良川",
        "isArea": false,
        "pref": "茨城県",
        "scale": 20,
        "changedScale": "2",
        "lat": "36.71",
        "lon": "140.71"
    },
    {
        "addr": "高萩市本町",
        "isArea": false,
        "pref": "茨城県",
        "scale": 10,
        "changedScale": "1",
        "lat": "36.71",
        "lon": 140.715
    },
    {
        "addr": "北茨城市磯原町",
        "isArea": false,
        "pref": "茨城県",
        "scale": 20,
        "changedScale": "2",
        "lat": "36.80",
        "lon": "140.75"
    },
    {
        "addr": "北茨城市中郷町",
        "isArea": false,
        "pref": "茨城県",
        "scale": 20,
        "changedScale": "2",
        "lat": "36.78",
        "lon": "140.73"
    },
    {
        "addr": "ひたちなか市山ノ上町",
        "isArea": false,
        "pref": "茨城県",
        "scale": 20,
        "changedScale": "2",
        "lat": "36.34",
        "lon": "140.59"
    },
    {
        "addr": "ひたちなか市南神敷台",
        "isArea": false,
        "pref": "茨城県",
        "scale": 20,
        "changedScale": "2",
        "lat": "36.35",
        "lon": "140.60"
    },
    {
        "addr": "ひたちなか市東石川",
        "isArea": false,
        "pref": "茨城県",
        "scale": 20,
        "changedScale": "2",
        "lat": "36.40",
        "lon": "140.54"
    },
    {
        "addr": "茨城町小堤",
        "isArea": false,
        "pref": "茨城県",
        "scale": 20,
        "changedScale": "2",
        "lat": "36.29",
        "lon": "140.42"
    },
    {
        "addr": "東海村東海",
        "isArea": false,
        "pref": "茨城県",
        "scale": 20,
        "changedScale": "2",
        "lat": "36.47",
        "lon": "140.57"
    },
    {
        "addr": "大子町池田",
        "isArea": false,
        "pref": "茨城県",
        "scale": 20,
        "changedScale": "2",
        "lat": "36.78",
        "lon": "140.36"
    },
    {
        "addr": "大洗町磯浜町",
        "isArea": false,
        "pref": "茨城県",
        "scale": 10,
        "changedScale": "1",
        "lat": "36.31",
        "lon": "140.58"
    },
    {
        "addr": "結城市中央町",
        "isArea": false,
        "pref": "茨城県",
        "scale": 40,
        "changedScale": "4",
        "lat": "36.29",
        "lon": "139.87"
    },
    {
        "addr": "筑西市舟生",
        "isArea": false,
        "pref": "茨城県",
        "scale": 40,
        "changedScale": "4",
        "lat": "36.25",
        "lon": "139.93"
    },
    {
        "addr": "筑西市門井",
        "isArea": false,
        "pref": "茨城県",
        "scale": 40,
        "changedScale": "4",
        "lat": "36.33",
        "lon": "140.03"
    },
    {
        "addr": "筑西市二木成",
        "isArea": false,
        "pref": "茨城県",
        "scale": 40,
        "changedScale": "4",
        "lat": "36.30",
        "lon": "139.97"
    },
    {
        "addr": "筑西市海老ヶ島",
        "isArea": false,
        "pref": "茨城県",
        "scale": 30,
        "changedScale": "3",
        "lat": "36.25",
        "lon": "140.04"
    },
    {
        "addr": "坂東市馬立",
        "isArea": false,
        "pref": "茨城県",
        "scale": 40,
        "changedScale": "4",
        "lat": "36.07",
        "lon": "139.91"
    },
    {
        "addr": "坂東市山",
        "isArea": false,
        "pref": "茨城県",
        "scale": 40,
        "changedScale": "4",
        "lat": "36.12",
        "lon": "139.89"
    },
    {
        "addr": "坂東市岩井",
        "isArea": false,
        "pref": "茨城県",
        "scale": 30,
        "changedScale": "3",
        "lat": "36.04",
        "lon": "139.88"
    },
    {
        "addr": "坂東市役所",
        "isArea": false,
        "pref": "茨城県",
        "scale": 30,
        "changedScale": "3",
        "lat": "36.05",
        "lon": "139.89"
    },
    {
        "addr": "土浦市常名",
        "isArea": false,
        "pref": "茨城県",
        "scale": 30,
        "changedScale": "3",
        "lat": "36.10",
        "lon": "140.19"
    },
    {
        "addr": "土浦市田中",
        "isArea": false,
        "pref": "茨城県",
        "scale": 30,
        "changedScale": "3",
        "lat": "36.09",
        "lon": "140.19"
    },
    {
        "addr": "土浦市藤沢",
        "isArea": false,
        "pref": "茨城県",
        "scale": 30,
        "changedScale": "3",
        "lat": "36.13",
        "lon": "140.16"
    },
    {
        "addr": "茨城古河市長谷町",
        "isArea": false,
        "pref": "茨城県",
        "scale": 30,
        "changedScale": "3",
        "lat": "36.18",
        "lon": "139.70"
    },
    {
        "addr": "茨城古河市下大野",
        "isArea": false,
        "pref": "茨城県",
        "scale": 30,
        "changedScale": "3",
        "lat": "36.18",
        "lon": "139.76"
    },
    {
        "addr": "茨城古河市仁連",
        "isArea": false,
        "pref": "茨城県",
        "scale": 30,
        "changedScale": "3",
        "lat": "36.19",
        "lon": "139.82"
    },
    {
        "addr": "石岡市柿岡",
        "isArea": false,
        "pref": "茨城県",
        "scale": 30,
        "changedScale": "3",
        "lat": "36.23",
        "lon": "140.19"
    },
    {
        "addr": "石岡市若宮",
        "isArea": false,
        "pref": "茨城県",
        "scale": 30,
        "changedScale": "3",
        "lat": "36.20",
        "lon": "140.27"
    },
    {
        "addr": "石岡市八郷",
        "isArea": false,
        "pref": "茨城県",
        "scale": 30,
        "changedScale": "3",
        "lat": "36.25",
        "lon": "140.20"
    },
    {
        "addr": "石岡市石岡",
        "isArea": false,
        "pref": "茨城県",
        "scale": 30,
        "changedScale": "3",
        "lat": "36.19",
        "lon": "140.29"
    },
    {
        "addr": "下妻市本城町",
        "isArea": false,
        "pref": "茨城県",
        "scale": 30,
        "changedScale": "3",
        "lat": "36.18",
        "lon": "139.97"
    },
    {
        "addr": "下妻市鬼怒",
        "isArea": false,
        "pref": "茨城県",
        "scale": 30,
        "changedScale": "3",
        "lat": "36.16",
        "lon": "139.96"
    },
    {
        "addr": "常総市新石下",
        "isArea": false,
        "pref": "茨城県",
        "scale": 30,
        "changedScale": "3",
        "lat": "36.12",
        "lon": "139.98"
    },
    {
        "addr": "常総市水海道諏訪町",
        "isArea": false,
        "pref": "茨城県",
        "scale": 30,
        "changedScale": "3",
        "lat": "36.02",
        "lon": "139.99"
    },
    {
        "addr": "取手市寺田",
        "isArea": false,
        "pref": "茨城県",
        "scale": 30,
        "changedScale": "3",
        "lat": "35.91",
        "lon": "140.05"
    },
    {
        "addr": "取手市井野",
        "isArea": false,
        "pref": "茨城県",
        "scale": 20,
        "changedScale": "2",
        "lat": "35.91",
        "lon": "140.07"
    },
    {
        "addr": "取手市藤代",
        "isArea": false,
        "pref": "茨城県",
        "scale": 20,
        "changedScale": "2",
        "lat": "35.92",
        "lon": "140.11"
    },
    {
        "addr": "つくば市天王台",
        "isArea": false,
        "pref": "茨城県",
        "scale": 30,
        "changedScale": "3",
        "lat": "36.13",
        "lon": "140.09"
    },
    {
        "addr": "つくば市研究学園",
        "isArea": false,
        "pref": "茨城県",
        "scale": 30,
        "changedScale": "3",
        "lat": "36.08",
        "lon": "140.08"
    },
    {
        "addr": "つくば市小茎",
        "isArea": false,
        "pref": "茨城県",
        "scale": 30,
        "changedScale": "3",
        "lat": "35.99",
        "lon": "140.11"
    },
    {
        "addr": "稲敷市江戸崎甲",
        "isArea": false,
        "pref": "茨城県",
        "scale": 30,
        "changedScale": "3",
        "lat": "35.95",
        "lon": "140.32"
    },
    {
        "addr": "稲敷市役所",
        "isArea": false,
        "pref": "茨城県",
        "scale": 20,
        "changedScale": "2",
        "lat": "35.97",
        "lon": "140.30"
    },
    {
        "addr": "稲敷市伊佐津",
        "isArea": false,
        "pref": "茨城県",
        "scale": 20,
        "changedScale": "2",
        "lat": "35.91",
        "lon": "140.29"
    },
    {
        "addr": "稲敷市結佐",
        "isArea": false,
        "pref": "茨城県",
        "scale": 20,
        "changedScale": "2",
        "lat": "35.93",
        "lon": "140.46"
    },
    {
        "addr": "稲敷市須賀津",
        "isArea": false,
        "pref": "茨城県",
        "scale": 20,
        "changedScale": "2",
        "lat": "35.97",
        "lon": "140.41"
    },
    {
        "addr": "かすみがうら市上土田",
        "isArea": false,
        "pref": "茨城県",
        "scale": 30,
        "changedScale": "3",
        "lat": "36.15",
        "lon": "140.24"
    },
    {
        "addr": "かすみがうら市大和田",
        "isArea": false,
        "pref": "茨城県",
        "scale": 30,
        "changedScale": "3",
        "lat": "36.09",
        "lon": "140.33"
    },
    {
        "addr": "桜川市岩瀬",
        "isArea": false,
        "pref": "茨城県",
        "scale": 30,
        "changedScale": "3",
        "lat": "36.36",
        "lon": "140.11"
    },
    {
        "addr": "桜川市真壁",
        "isArea": false,
        "pref": "茨城県",
        "scale": 30,
        "changedScale": "3",
        "lat": "36.28",
        "lon": "140.09"
    },
    {
        "addr": "桜川市羽田",
        "isArea": false,
        "pref": "茨城県",
        "scale": 30,
        "changedScale": "3",
        "lat": "36.33",
        "lon": "140.09"
    },
    {
        "addr": "行方市玉造",
        "isArea": false,
        "pref": "茨城県",
        "scale": 30,
        "changedScale": "3",
        "lat": "36.10",
        "lon": "140.42"
    },
    {
        "addr": "行方市山田",
        "isArea": false,
        "pref": "茨城県",
        "scale": 20,
        "changedScale": "2",
        "lat": "36.08",
        "lon": "140.53"
    },
    {
        "addr": "行方市麻生",
        "isArea": false,
        "pref": "茨城県",
        "scale": 20,
        "changedScale": "2",
        "lat": "35.99",
        "lon": "140.49"
    },
    {
        "addr": "五霞町小福田",
        "isArea": false,
        "pref": "茨城県",
        "scale": 30,
        "changedScale": "3",
        "lat": "36.11",
        "lon": "139.75"
    },
    {
        "addr": "境町旭町",
        "isArea": false,
        "pref": "茨城県",
        "scale": 30,
        "changedScale": "3",
        "lat": "36.11",
        "lon": "139.79"
    },
    {
        "addr": "龍ケ崎市役所",
        "isArea": false,
        "pref": "茨城県",
        "scale": 20,
        "changedScale": "2",
        "lat": "35.91",
        "lon": "140.18"
    },
    {
        "addr": "牛久市中央",
        "isArea": false,
        "pref": "茨城県",
        "scale": 20,
        "changedScale": "2",
        "lat": "35.98",
        "lon": "140.15"
    },
    {
        "addr": "茨城鹿嶋市鉢形",
        "isArea": false,
        "pref": "茨城県",
        "scale": 20,
        "changedScale": "2",
        "lat": "35.97",
        "lon": "140.65"
    },
    {
        "addr": "茨城鹿嶋市宮中",
        "isArea": false,
        "pref": "茨城県",
        "scale": 20,
        "changedScale": "2",
        "lat": "35.98",
        "lon": "140.63"
    },
    {
        "addr": "潮来市堀之内",
        "isArea": false,
        "pref": "茨城県",
        "scale": 20,
        "changedScale": "2",
        "lat": "35.97",
        "lon": "140.53"
    },
    {
        "addr": "潮来市辻",
        "isArea": false,
        "pref": "茨城県",
        "scale": 20,
        "changedScale": "2",
        "lat": "35.95",
        "lon": "140.56"
    },
    {
        "addr": "守谷市大柏",
        "isArea": false,
        "pref": "茨城県",
        "scale": 20,
        "changedScale": "2",
        "lat": "35.95",
        "lon": "139.98"
    },
    {
        "addr": "神栖市溝口",
        "isArea": false,
        "pref": "茨城県",
        "scale": 20,
        "changedScale": "2",
        "lat": "35.89",
        "lon": "140.66"
    },
    {
        "addr": "神栖市波崎",
        "isArea": false,
        "pref": "茨城県",
        "scale": 10,
        "changedScale": "1",
        "lat": "35.76",
        "lon": "140.81"
    },
    {
        "addr": "鉾田市鉾田",
        "isArea": false,
        "pref": "茨城県",
        "scale": 20,
        "changedScale": "2",
        "lat": "36.16",
        "lon": "140.52"
    },
    {
        "addr": "鉾田市造谷",
        "isArea": false,
        "pref": "茨城県",
        "scale": 20,
        "changedScale": "2",
        "lat": "36.23",
        "lon": "140.54"
    },
    {
        "addr": "鉾田市汲上",
        "isArea": false,
        "pref": "茨城県",
        "scale": 20,
        "changedScale": "2",
        "lat": "36.10",
        "lon": "140.57"
    },
    {
        "addr": "つくばみらい市加藤",
        "isArea": false,
        "pref": "茨城県",
        "scale": 20,
        "changedScale": "2",
        "lat": "35.99",
        "lon": "140.01"
    },
    {
        "addr": "つくばみらい市福田",
        "isArea": false,
        "pref": "茨城県",
        "scale": 20,
        "changedScale": "2",
        "lat": "35.96",
        "lon": "140.04"
    },
    {
        "addr": "美浦村受領",
        "isArea": false,
        "pref": "茨城県",
        "scale": 20,
        "changedScale": "2",
        "lat": "36.00",
        "lon": "140.30"
    },
    {
        "addr": "阿見町中央",
        "isArea": false,
        "pref": "茨城県",
        "scale": 20,
        "changedScale": "2",
        "lat": "36.03",
        "lon": "140.21"
    },
    {
        "addr": "河内町源清田",
        "isArea": false,
        "pref": "茨城県",
        "scale": 20,
        "changedScale": "2",
        "lat": "35.88",
        "lon": "140.24"
    },
    {
        "addr": "八千代町菅谷",
        "isArea": false,
        "pref": "茨城県",
        "scale": 20,
        "changedScale": "2",
        "lat": "36.18",
        "lon": "139.89"
    },
    {
        "addr": "利根町布川",
        "isArea": false,
        "pref": "茨城県",
        "scale": 20,
        "changedScale": "2",
        "lat": "35.86",
        "lon": "140.14"
    },
    {
        "addr": "足利市大正町",
        "isArea": false,
        "pref": "栃木県",
        "scale": 40,
        "changedScale": "4",
        "lat": "36.34",
        "lon": "139.45"
    },
    {
        "addr": "栃木市西方町本城",
        "isArea": false,
        "pref": "栃木県",
        "scale": 40,
        "changedScale": "4",
        "lat": "36.47",
        "lon": "139.75"
    },
    {
        "addr": "栃木市旭町",
        "isArea": false,
        "pref": "栃木県",
        "scale": 30,
        "changedScale": "3",
        "lat": "36.38",
        "lon": "139.74"
    },
    {
        "addr": "栃木市大平町富田",
        "isArea": false,
        "pref": "栃木県",
        "scale": 30,
        "changedScale": "3",
        "lat": "36.34",
        "lon": "139.70"
    },
    {
        "addr": "栃木市藤岡町藤岡",
        "isArea": false,
        "pref": "栃木県",
        "scale": 30,
        "changedScale": "3",
        "lat": "36.26",
        "lon": "139.65"
    },
    {
        "addr": "栃木市都賀町家中",
        "isArea": false,
        "pref": "栃木県",
        "scale": 30,
        "changedScale": "3",
        "lat": "36.43",
        "lon": "139.75"
    },
    {
        "addr": "栃木市万町",
        "isArea": false,
        "pref": "栃木県",
        "scale": 30,
        "changedScale": "3",
        "lat": "36.38",
        "lon": "139.73"
    },
    {
        "addr": "栃木市岩舟町静",
        "isArea": false,
        "pref": "栃木県",
        "scale": 30,
        "changedScale": "3",
        "lat": "36.32",
        "lon": "139.66"
    },
    {
        "addr": "佐野市葛生東",
        "isArea": false,
        "pref": "栃木県",
        "scale": 40,
        "changedScale": "4",
        "lat": "36.40",
        "lon": "139.61"
    },
    {
        "addr": "佐野市高砂町",
        "isArea": false,
        "pref": "栃木県",
        "scale": 40,
        "changedScale": "4",
        "lat": "36.31",
        "lon": "139.58"
    },
    {
        "addr": "佐野市中町",
        "isArea": false,
        "pref": "栃木県",
        "scale": 30,
        "changedScale": "3",
        "lat": "36.39",
        "lon": "139.61"
    },
    {
        "addr": "佐野市田沼町",
        "isArea": false,
        "pref": "栃木県",
        "scale": 30,
        "changedScale": "3",
        "lat": "36.38",
        "lon": "139.57"
    },
    {
        "addr": "鹿沼市晃望台",
        "isArea": false,
        "pref": "栃木県",
        "scale": 40,
        "changedScale": "4",
        "lat": "36.56",
        "lon": "139.77"
    },
    {
        "addr": "鹿沼市口粟野",
        "isArea": false,
        "pref": "栃木県",
        "scale": 30,
        "changedScale": "3",
        "lat": "36.52",
        "lon": "139.67"
    },
    {
        "addr": "鹿沼市今宮町",
        "isArea": false,
        "pref": "栃木県",
        "scale": 20,
        "changedScale": "2",
        "lat": "36.57",
        "lon": "139.75"
    },
    {
        "addr": "下野市田中",
        "isArea": false,
        "pref": "栃木県",
        "scale": 40,
        "changedScale": "4",
        "lat": "36.39",
        "lon": "139.88"
    },
    {
        "addr": "下野市笹原",
        "isArea": false,
        "pref": "栃木県",
        "scale": 40,
        "changedScale": "4",
        "lat": "36.39",
        "lon": "139.85"
    },
    {
        "addr": "下野市大松山",
        "isArea": false,
        "pref": "栃木県",
        "scale": 30,
        "changedScale": "3",
        "lat": "36.43",
        "lon": "139.86"
    },
    {
        "addr": "宇都宮市明保野町",
        "isArea": false,
        "pref": "栃木県",
        "scale": 30,
        "changedScale": "3",
        "lat": "36.55",
        "lon": "139.87"
    },
    {
        "addr": "宇都宮市塙田",
        "isArea": false,
        "pref": "栃木県",
        "scale": 30,
        "changedScale": "3",
        "lat": "36.57",
        "lon": "139.89"
    },
    {
        "addr": "宇都宮市旭",
        "isArea": false,
        "pref": "栃木県",
        "scale": 30,
        "changedScale": "3",
        "lat": "36.55",
        "lon": "139.88"
    },
    {
        "addr": "宇都宮市中里町",
        "isArea": false,
        "pref": "栃木県",
        "scale": 30,
        "changedScale": "3",
        "lat": "36.68",
        "lon": "139.90"
    },
    {
        "addr": "宇都宮市中岡本町",
        "isArea": false,
        "pref": "栃木県",
        "scale": 30,
        "changedScale": "3",
        "lat": "36.62",
        "lon": "139.94"
    },
    {
        "addr": "小山市神鳥谷",
        "isArea": false,
        "pref": "栃木県",
        "scale": 30,
        "changedScale": "3",
        "lat": "36.29",
        "lon": "139.80"
    },
    {
        "addr": "真岡市田町",
        "isArea": false,
        "pref": "栃木県",
        "scale": 30,
        "changedScale": "3",
        "lat": "36.44",
        "lon": "140.02"
    },
    {
        "addr": "真岡市荒町",
        "isArea": false,
        "pref": "栃木県",
        "scale": 30,
        "changedScale": "3",
        "lat": "36.44",
        "lon": "140.01"
    },
    {
        "addr": "上三川町しらさぎ",
        "isArea": false,
        "pref": "栃木県",
        "scale": 30,
        "changedScale": "3",
        "lat": "36.44",
        "lon": "139.91"
    },
    {
        "addr": "益子町益子",
        "isArea": false,
        "pref": "栃木県",
        "scale": 30,
        "changedScale": "3",
        "lat": "36.47",
        "lon": "140.09"
    },
    {
        "addr": "茂木町茂木",
        "isArea": false,
        "pref": "栃木県",
        "scale": 30,
        "changedScale": "3",
        "lat": "36.53",
        "lon": "140.19"
    },
    {
        "addr": "茂木町北高岡天矢場",
        "isArea": false,
        "pref": "栃木県",
        "scale": 20,
        "changedScale": "2",
        "lat": "36.53",
        "lon": "140.16"
    },
    {
        "addr": "芳賀町祖母井",
        "isArea": false,
        "pref": "栃木県",
        "scale": 30,
        "changedScale": "3",
        "lat": "36.55",
        "lon": "140.06"
    },
    {
        "addr": "壬生町通町",
        "isArea": false,
        "pref": "栃木県",
        "scale": 30,
        "changedScale": "3",
        "lat": "36.43",
        "lon": "139.80"
    },
    {
        "addr": "野木町丸林",
        "isArea": false,
        "pref": "栃木県",
        "scale": 30,
        "changedScale": "3",
        "lat": "36.23",
        "lon": "139.74"
    },
    {
        "addr": "高根沢町石末",
        "isArea": false,
        "pref": "栃木県",
        "scale": 30,
        "changedScale": "3",
        "lat": "36.63",
        "lon": "139.99"
    },
    {
        "addr": "栃木さくら市氏家",
        "isArea": false,
        "pref": "栃木県",
        "scale": 20,
        "changedScale": "2",
        "lat": "36.69",
        "lon": "139.97"
    },
    {
        "addr": "栃木さくら市喜連川",
        "isArea": false,
        "pref": "栃木県",
        "scale": 20,
        "changedScale": "2",
        "lat": "36.72",
        "lon": "140.02"
    },
    {
        "addr": "那須烏山市神長",
        "isArea": false,
        "pref": "栃木県",
        "scale": 20,
        "changedScale": "2",
        "lat": "36.66",
        "lon": "140.13"
    },
    {
        "addr": "那須烏山市大金",
        "isArea": false,
        "pref": "栃木県",
        "scale": 20,
        "changedScale": "2",
        "lat": "36.66",
        "lon": "140.09"
    },
    {
        "addr": "那須烏山市役所",
        "isArea": false,
        "pref": "栃木県",
        "scale": 10,
        "changedScale": "1",
        "lat": "36.66",
        "lon": "140.15"
    },
    {
        "addr": "市貝町市塙",
        "isArea": false,
        "pref": "栃木県",
        "scale": 20,
        "changedScale": "2",
        "lat": "36.54",
        "lon": "140.10"
    },
    {
        "addr": "栃木那珂川町馬頭",
        "isArea": false,
        "pref": "栃木県",
        "scale": 20,
        "changedScale": "2",
        "lat": "36.74",
        "lon": "140.17"
    },
    {
        "addr": "栃木那珂川町小川",
        "isArea": false,
        "pref": "栃木県",
        "scale": 20,
        "changedScale": "2",
        "lat": "36.76",
        "lon": "140.13"
    },
    {
        "addr": "日光市足尾町中才",
        "isArea": false,
        "pref": "栃木県",
        "scale": 30,
        "changedScale": "3",
        "lat": "36.63",
        "lon": "139.44"
    },
    {
        "addr": "日光市瀬川",
        "isArea": false,
        "pref": "栃木県",
        "scale": 20,
        "changedScale": "2",
        "lat": "36.73",
        "lon": "139.69"
    },
    {
        "addr": "日光市鬼怒川温泉大原",
        "isArea": false,
        "pref": "栃木県",
        "scale": 20,
        "changedScale": "2",
        "lat": "36.81",
        "lon": "139.72"
    },
    {
        "addr": "日光市湯元",
        "isArea": false,
        "pref": "栃木県",
        "scale": 20,
        "changedScale": "2",
        "lat": "36.81",
        "lon": "139.42"
    },
    {
        "addr": "日光市芹沼",
        "isArea": false,
        "pref": "栃木県",
        "scale": 20,
        "changedScale": "2",
        "lat": "36.75",
        "lon": "139.71"
    },
    {
        "addr": "日光市足尾町通洞",
        "isArea": false,
        "pref": "栃木県",
        "scale": 20,
        "changedScale": "2",
        "lat": "36.63",
        "lon": 139.445
    },
    {
        "addr": "日光市藤原庁舎",
        "isArea": false,
        "pref": "栃木県",
        "scale": 20,
        "changedScale": "2",
        "lat": "36.82",
        "lon": "139.72"
    },
    {
        "addr": "日光市御幸町",
        "isArea": false,
        "pref": "栃木県",
        "scale": 20,
        "changedScale": "2",
        "lat": "36.75",
        "lon": "139.61"
    },
    {
        "addr": "日光市黒部",
        "isArea": false,
        "pref": "栃木県",
        "scale": 20,
        "changedScale": "2",
        "lat": "36.87",
        "lon": "139.60"
    },
    {
        "addr": "日光市今市本町",
        "isArea": false,
        "pref": "栃木県",
        "scale": 20,
        "changedScale": "2",
        "lat": "36.72",
        "lon": "139.70"
    },
    {
        "addr": "日光市中宮祠",
        "isArea": false,
        "pref": "栃木県",
        "scale": 10,
        "changedScale": "1",
        "lat": "36.74",
        "lon": "139.50"
    },
    {
        "addr": "大田原市黒羽田町",
        "isArea": false,
        "pref": "栃木県",
        "scale": 20,
        "changedScale": "2",
        "lat": "36.86",
        "lon": "140.12"
    },
    {
        "addr": "大田原市本町",
        "isArea": false,
        "pref": "栃木県",
        "scale": 20,
        "changedScale": "2",
        "lat": "36.87",
        "lon": "140.02"
    },
    {
        "addr": "矢板市本町",
        "isArea": false,
        "pref": "栃木県",
        "scale": 20,
        "changedScale": "2",
        "lat": "36.81",
        "lon": "139.92"
    },
    {
        "addr": "那須塩原市あたご町",
        "isArea": false,
        "pref": "栃木県",
        "scale": 20,
        "changedScale": "2",
        "lat": "36.88",
        "lon": "139.98"
    },
    {
        "addr": "那須塩原市塩原庁舎",
        "isArea": false,
        "pref": "栃木県",
        "scale": 20,
        "changedScale": "2",
        "lat": "36.98",
        "lon": "139.81"
    },
    {
        "addr": "那須塩原市蟇沼",
        "isArea": false,
        "pref": "栃木県",
        "scale": 10,
        "changedScale": "1",
        "lat": "36.97",
        "lon": "139.92"
    },
    {
        "addr": "那須塩原市鍋掛",
        "isArea": false,
        "pref": "栃木県",
        "scale": 10,
        "changedScale": "1",
        "lat": "36.94",
        "lon": "140.08"
    },
    {
        "addr": "那須塩原市中塩原",
        "isArea": false,
        "pref": "栃木県",
        "scale": 10,
        "changedScale": "1",
        "lat": "36.99",
        "lon": "139.80"
    },
    {
        "addr": "那須塩原市共墾社",
        "isArea": false,
        "pref": "栃木県",
        "scale": 10,
        "changedScale": "1",
        "lat": "36.96",
        "lon": "140.05"
    },
    {
        "addr": "塩谷町玉生",
        "isArea": false,
        "pref": "栃木県",
        "scale": 20,
        "changedScale": "2",
        "lat": "36.78",
        "lon": "139.85"
    },
    {
        "addr": "那須町寺子",
        "isArea": false,
        "pref": "栃木県",
        "scale": 20,
        "changedScale": "2",
        "lat": "37.02",
        "lon": "140.12"
    },
    {
        "addr": "桐生市元宿町",
        "isArea": false,
        "pref": "群馬県",
        "scale": 40,
        "changedScale": "4",
        "lat": "36.41",
        "lon": 139.335
    },
    {
        "addr": "桐生市織姫町",
        "isArea": false,
        "pref": "群馬県",
        "scale": 30,
        "changedScale": "3",
        "lat": "36.41",
        "lon": "139.33"
    },
    {
        "addr": "桐生市新里町",
        "isArea": false,
        "pref": "群馬県",
        "scale": 30,
        "changedScale": "3",
        "lat": "36.42",
        "lon": "139.24"
    },
    {
        "addr": "太田市西本町",
        "isArea": false,
        "pref": "群馬県",
        "scale": 40,
        "changedScale": "4",
        "lat": "36.29",
        "lon": "139.36"
    },
    {
        "addr": "太田市浜町",
        "isArea": false,
        "pref": "群馬県",
        "scale": 30,
        "changedScale": "3",
        "lat": "36.29",
        "lon": "139.38"
    },
    {
        "addr": "太田市新田金井町",
        "isArea": false,
        "pref": "群馬県",
        "scale": 30,
        "changedScale": "3",
        "lat": "36.30",
        "lon": "139.30"
    },
    {
        "addr": "太田市大原町",
        "isArea": false,
        "pref": "群馬県",
        "scale": 30,
        "changedScale": "3",
        "lat": "36.36",
        "lon": "139.30"
    },
    {
        "addr": "太田市粕川町",
        "isArea": false,
        "pref": "群馬県",
        "scale": 20,
        "changedScale": "2",
        "lat": "36.26",
        "lon": "139.30"
    },
    {
        "addr": "館林市上三林町",
        "isArea": false,
        "pref": "群馬県",
        "scale": 40,
        "changedScale": "4",
        "lat": "36.22",
        "lon": "139.48"
    },
    {
        "addr": "館林市城町",
        "isArea": false,
        "pref": "群馬県",
        "scale": 30,
        "changedScale": "3",
        "lat": "36.25",
        "lon": "139.54"
    },
    {
        "addr": "板倉町板倉",
        "isArea": false,
        "pref": "群馬県",
        "scale": 40,
        "changedScale": "4",
        "lat": "36.22",
        "lon": "139.60"
    },
    {
        "addr": "千代田町赤岩",
        "isArea": false,
        "pref": "群馬県",
        "scale": 40,
        "changedScale": "4",
        "lat": "36.22",
        "lon": "139.44"
    },
    {
        "addr": "大泉町日の出",
        "isArea": false,
        "pref": "群馬県",
        "scale": 40,
        "changedScale": "4",
        "lat": "36.25",
        "lon": "139.41"
    },
    {
        "addr": "前橋市堀越町",
        "isArea": false,
        "pref": "群馬県",
        "scale": 30,
        "changedScale": "3",
        "lat": "36.42",
        "lon": "139.16"
    },
    {
        "addr": "前橋市粕川町",
        "isArea": false,
        "pref": "群馬県",
        "scale": 30,
        "changedScale": "3",
        "lat": "36.41",
        "lon": "139.21"
    },
    {
        "addr": "前橋市富士見町",
        "isArea": false,
        "pref": "群馬県",
        "scale": 30,
        "changedScale": "3",
        "lat": "36.45",
        "lon": "139.08"
    },
    {
        "addr": "前橋市昭和町",
        "isArea": false,
        "pref": "群馬県",
        "scale": 20,
        "changedScale": "2",
        "lat": "36.41",
        "lon": "139.06"
    },
    {
        "addr": "前橋市駒形町",
        "isArea": false,
        "pref": "群馬県",
        "scale": 20,
        "changedScale": "2",
        "lat": "36.35",
        "lon": "139.14"
    },
    {
        "addr": "前橋市大手町",
        "isArea": false,
        "pref": "群馬県",
        "scale": 20,
        "changedScale": "2",
        "lat": "36.39",
        "lon": "139.06"
    },
    {
        "addr": "前橋市鼻毛石町",
        "isArea": false,
        "pref": "群馬県",
        "scale": 20,
        "changedScale": "2",
        "lat": "36.44",
        "lon": "139.18"
    },
    {
        "addr": "伊勢崎市今泉町",
        "isArea": false,
        "pref": "群馬県",
        "scale": 30,
        "changedScale": "3",
        "lat": "36.31",
        "lon": "139.20"
    },
    {
        "addr": "伊勢崎市西久保町",
        "isArea": false,
        "pref": "群馬県",
        "scale": 30,
        "changedScale": "3",
        "lat": "36.38",
        "lon": "139.23"
    },
    {
        "addr": "伊勢崎市東町",
        "isArea": false,
        "pref": "群馬県",
        "scale": 30,
        "changedScale": "3",
        "lat": "36.34",
        "lon": "139.25"
    },
    {
        "addr": "伊勢崎市境",
        "isArea": false,
        "pref": "群馬県",
        "scale": 20,
        "changedScale": "2",
        "lat": "36.28",
        "lon": "139.25"
    },
    {
        "addr": "渋川市吹屋",
        "isArea": false,
        "pref": "群馬県",
        "scale": 30,
        "changedScale": "3",
        "lat": "36.52",
        "lon": "139.01"
    },
    {
        "addr": "渋川市赤城町",
        "isArea": false,
        "pref": "群馬県",
        "scale": 30,
        "changedScale": "3",
        "lat": "36.53",
        "lon": "139.04"
    },
    {
        "addr": "渋川市有馬",
        "isArea": false,
        "pref": "群馬県",
        "scale": 20,
        "changedScale": "2",
        "lat": "36.46",
        "lon": "139.01"
    },
    {
        "addr": "渋川市石原",
        "isArea": false,
        "pref": "群馬県",
        "scale": 20,
        "changedScale": "2",
        "lat": "36.49",
        "lon": "139.00"
    },
    {
        "addr": "渋川市北橘町",
        "isArea": false,
        "pref": "群馬県",
        "scale": 20,
        "changedScale": "2",
        "lat": "36.48",
        "lon": "139.05"
    },
    {
        "addr": "渋川市村上",
        "isArea": false,
        "pref": "群馬県",
        "scale": 20,
        "changedScale": "2",
        "lat": "36.55",
        "lon": "138.94"
    },
    {
        "addr": "渋川市伊香保町",
        "isArea": false,
        "pref": "群馬県",
        "scale": 20,
        "changedScale": "2",
        "lat": "36.50",
        "lon": "138.92"
    },
    {
        "addr": "藤岡市鬼石",
        "isArea": false,
        "pref": "群馬県",
        "scale": 30,
        "changedScale": "3",
        "lat": "36.16",
        "lon": "139.06"
    },
    {
        "addr": "藤岡市中栗須",
        "isArea": false,
        "pref": "群馬県",
        "scale": 20,
        "changedScale": "2",
        "lat": "36.26",
        "lon": "139.08"
    },
    {
        "addr": "みどり市笠懸町",
        "isArea": false,
        "pref": "群馬県",
        "scale": 30,
        "changedScale": "3",
        "lat": "36.40",
        "lon": "139.28"
    },
    {
        "addr": "みどり市大間々町",
        "isArea": false,
        "pref": "群馬県",
        "scale": 30,
        "changedScale": "3",
        "lat": "36.43",
        "lon": "139.27"
    },
    {
        "addr": "みどり市東町",
        "isArea": false,
        "pref": "群馬県",
        "scale": 20,
        "changedScale": "2",
        "lat": "36.52",
        "lon": "139.31"
    },
    {
        "addr": "群馬明和町新里",
        "isArea": false,
        "pref": "群馬県",
        "scale": 30,
        "changedScale": "3",
        "lat": "36.21",
        "lon": "139.53"
    },
    {
        "addr": "邑楽町中野",
        "isArea": false,
        "pref": "群馬県",
        "scale": 30,
        "changedScale": "3",
        "lat": "36.25",
        "lon": "139.46"
    },
    {
        "addr": "高崎市高松町",
        "isArea": false,
        "pref": "群馬県",
        "scale": 20,
        "changedScale": "2",
        "lat": "36.32",
        "lon": "139.00"
    },
    {
        "addr": "高崎市倉渕町",
        "isArea": false,
        "pref": "群馬県",
        "scale": 20,
        "changedScale": "2",
        "lat": "36.43",
        "lon": "138.79"
    },
    {
        "addr": "高崎市箕郷町",
        "isArea": false,
        "pref": "群馬県",
        "scale": 20,
        "changedScale": "2",
        "lat": "36.39",
        "lon": "138.96"
    },
    {
        "addr": "高崎市足門町",
        "isArea": false,
        "pref": "群馬県",
        "scale": 20,
        "changedScale": "2",
        "lat": "36.40",
        "lon": "139.00"
    },
    {
        "addr": "高崎市新町",
        "isArea": false,
        "pref": "群馬県",
        "scale": 20,
        "changedScale": "2",
        "lat": "36.28",
        "lon": "139.11"
    },
    {
        "addr": "高崎市吉井町吉井川",
        "isArea": false,
        "pref": "群馬県",
        "scale": 20,
        "changedScale": "2",
        "lat": "36.25",
        "lon": "138.99"
    },
    {
        "addr": "高崎市下室田",
        "isArea": false,
        "pref": "群馬県",
        "scale": 10,
        "changedScale": "1",
        "lat": "36.38",
        "lon": "138.88"
    },
    {
        "addr": "富岡市七日市",
        "isArea": false,
        "pref": "群馬県",
        "scale": 20,
        "changedScale": "2",
        "lat": "36.26",
        "lon": "138.88"
    },
    {
        "addr": "富岡市妙義町",
        "isArea": false,
        "pref": "群馬県",
        "scale": 20,
        "changedScale": "2",
        "lat": "36.29",
        "lon": "138.82"
    },
    {
        "addr": "安中市安中",
        "isArea": false,
        "pref": "群馬県",
        "scale": 20,
        "changedScale": "2",
        "lat": "36.33",
        "lon": "138.89"
    },
    {
        "addr": "安中市松井田町",
        "isArea": false,
        "pref": "群馬県",
        "scale": 10,
        "changedScale": "1",
        "lat": "36.35",
        "lon": "138.72"
    },
    {
        "addr": "榛東村新井",
        "isArea": false,
        "pref": "群馬県",
        "scale": 20,
        "changedScale": "2",
        "lat": "36.44",
        "lon": "138.97"
    },
    {
        "addr": "吉岡町下野田",
        "isArea": false,
        "pref": "群馬県",
        "scale": 20,
        "changedScale": "2",
        "lat": "36.45",
        "lon": "139.01"
    },
    {
        "addr": "神流町生利",
        "isArea": false,
        "pref": "群馬県",
        "scale": 20,
        "changedScale": "2",
        "lat": "36.12",
        "lon": "138.93"
    },
    {
        "addr": "神流町神ヶ原",
        "isArea": false,
        "pref": "群馬県",
        "scale": 20,
        "changedScale": "2",
        "lat": "36.09",
        "lon": "138.83"
    },
    {
        "addr": "甘楽町小幡",
        "isArea": false,
        "pref": "群馬県",
        "scale": 20,
        "changedScale": "2",
        "lat": "36.24",
        "lon": "138.92"
    },
    {
        "addr": "玉村町下新田",
        "isArea": false,
        "pref": "群馬県",
        "scale": 20,
        "changedScale": "2",
        "lat": "36.30",
        "lon": "139.12"
    },
    {
        "addr": "群馬上野村川和",
        "isArea": false,
        "pref": "群馬県",
        "scale": 10,
        "changedScale": "1",
        "lat": "36.08",
        "lon": "138.78"
    },
    {
        "addr": "下仁田町下小坂",
        "isArea": false,
        "pref": "群馬県",
        "scale": 10,
        "changedScale": "1",
        "lat": "36.23",
        "lon": "138.76"
    },
    {
        "addr": "群馬南牧村大日向",
        "isArea": false,
        "pref": "群馬県",
        "scale": 10,
        "changedScale": "1",
        "lat": "36.16",
        "lon": "138.71"
    },
    {
        "addr": "沼田市西倉内町",
        "isArea": false,
        "pref": "群馬県",
        "scale": 30,
        "changedScale": "3",
        "lat": "36.65",
        "lon": "139.04"
    },
    {
        "addr": "沼田市下久屋町",
        "isArea": false,
        "pref": "群馬県",
        "scale": 30,
        "changedScale": "3",
        "lat": "36.66",
        "lon": "139.08"
    },
    {
        "addr": "沼田市利根町",
        "isArea": false,
        "pref": "群馬県",
        "scale": 30,
        "changedScale": "3",
        "lat": "36.70",
        "lon": "139.21"
    },
    {
        "addr": "沼田市尾瀬高等学校",
        "isArea": false,
        "pref": "群馬県",
        "scale": 20,
        "changedScale": "2",
        "lat": "36.73",
        "lon": "139.22"
    },
    {
        "addr": "沼田市白沢町",
        "isArea": false,
        "pref": "群馬県",
        "scale": 20,
        "changedScale": "2",
        "lat": "36.66",
        "lon": "139.14"
    },
    {
        "addr": "東吾妻町本宿",
        "isArea": false,
        "pref": "群馬県",
        "scale": 20,
        "changedScale": "2",
        "lat": "36.51",
        "lon": "138.75"
    },
    {
        "addr": "東吾妻町奥田",
        "isArea": false,
        "pref": "群馬県",
        "scale": 20,
        "changedScale": "2",
        "lat": "36.55",
        "lon": "138.90"
    },
    {
        "addr": "東吾妻町原町",
        "isArea": false,
        "pref": "群馬県",
        "scale": 10,
        "changedScale": "1",
        "lat": "36.57",
        "lon": "138.82"
    },
    {
        "addr": "片品村鎌田",
        "isArea": false,
        "pref": "群馬県",
        "scale": 20,
        "changedScale": "2",
        "lat": "36.77",
        "lon": "139.22"
    },
    {
        "addr": "群馬昭和村糸井",
        "isArea": false,
        "pref": "群馬県",
        "scale": 20,
        "changedScale": "2",
        "lat": "36.64",
        "lon": "139.07"
    },
    {
        "addr": "みなかみ町鹿野沢",
        "isArea": false,
        "pref": "群馬県",
        "scale": 20,
        "changedScale": "2",
        "lat": "36.78",
        "lon": "138.97"
    },
    {
        "addr": "みなかみ町後閑",
        "isArea": false,
        "pref": "群馬県",
        "scale": 10,
        "changedScale": "1",
        "lat": "36.68",
        "lon": "139.00"
    },
    {
        "addr": "みなかみ町布施",
        "isArea": false,
        "pref": "群馬県",
        "scale": 10,
        "changedScale": "1",
        "lat": "36.69",
        "lon": "138.93"
    },
    {
        "addr": "中之条町日影",
        "isArea": false,
        "pref": "群馬県",
        "scale": 10,
        "changedScale": "1",
        "lat": "36.56",
        "lon": "138.64"
    },
    {
        "addr": "中之条町中之条町",
        "isArea": false,
        "pref": "群馬県",
        "scale": 10,
        "changedScale": "1",
        "lat": "36.59",
        "lon": "138.84"
    },
    {
        "addr": "中之条町入山",
        "isArea": false,
        "pref": "群馬県",
        "scale": 10,
        "changedScale": "1",
        "lat": "36.65",
        "lon": "138.65"
    },
    {
        "addr": "嬬恋村大前",
        "isArea": false,
        "pref": "群馬県",
        "scale": 10,
        "changedScale": "1",
        "lat": "36.52",
        "lon": "138.53"
    },
    {
        "addr": "草津町草津",
        "isArea": false,
        "pref": "群馬県",
        "scale": 10,
        "changedScale": "1",
        "lat": "36.62",
        "lon": "138.59"
    },
    {
        "addr": "群馬高山村中山",
        "isArea": false,
        "pref": "群馬県",
        "scale": 10,
        "changedScale": "1",
        "lat": "36.62",
        "lon": "138.94"
    },
    {
        "addr": "川場村谷地",
        "isArea": false,
        "pref": "群馬県",
        "scale": 10,
        "changedScale": "1",
        "lat": "36.69",
        "lon": "139.11"
    },
    {
        "addr": "加須市三俣",
        "isArea": false,
        "pref": "埼玉県",
        "scale": 40,
        "changedScale": "4",
        "lat": "36.13",
        "lon": "139.60"
    },
    {
        "addr": "加須市騎西",
        "isArea": false,
        "pref": "埼玉県",
        "scale": 40,
        "changedScale": "4",
        "lat": "36.10",
        "lon": "139.57"
    },
    {
        "addr": "加須市北川辺",
        "isArea": false,
        "pref": "埼玉県",
        "scale": 40,
        "changedScale": "4",
        "lat": "36.19",
        "lon": "139.66"
    },
    {
        "addr": "加須市大利根",
        "isArea": false,
        "pref": "埼玉県",
        "scale": 40,
        "changedScale": "4",
        "lat": "36.14",
        "lon": "139.66"
    },
    {
        "addr": "久喜市下早見",
        "isArea": false,
        "pref": "埼玉県",
        "scale": 40,
        "changedScale": "4",
        "lat": "36.06",
        "lon": "139.67"
    },
    {
        "addr": "久喜市青葉",
        "isArea": false,
        "pref": "埼玉県",
        "scale": 40,
        "changedScale": "4",
        "lat": "36.07",
        "lon": "139.70"
    },
    {
        "addr": "久喜市栗橋",
        "isArea": false,
        "pref": "埼玉県",
        "scale": 40,
        "changedScale": "4",
        "lat": "36.13",
        "lon": "139.70"
    },
    {
        "addr": "久喜市鷲宮",
        "isArea": false,
        "pref": "埼玉県",
        "scale": 40,
        "changedScale": "4",
        "lat": "36.10",
        "lon": "139.67"
    },
    {
        "addr": "久喜市菖蒲",
        "isArea": false,
        "pref": "埼玉県",
        "scale": 30,
        "changedScale": "3",
        "lat": "36.06",
        "lon": "139.60"
    },
    {
        "addr": "埼玉美里町木部",
        "isArea": false,
        "pref": "埼玉県",
        "scale": 40,
        "changedScale": "4",
        "lat": "36.18",
        "lon": "139.18"
    },
    {
        "addr": "熊谷市桜町",
        "isArea": false,
        "pref": "埼玉県",
        "scale": 30,
        "changedScale": "3",
        "lat": "36.15",
        "lon": "139.38"
    },
    {
        "addr": "熊谷市宮町",
        "isArea": false,
        "pref": "埼玉県",
        "scale": 30,
        "changedScale": "3",
        "lat": "36.15",
        "lon": "139.39"
    },
    {
        "addr": "熊谷市大里",
        "isArea": false,
        "pref": "埼玉県",
        "scale": 30,
        "changedScale": "3",
        "lat": "36.10",
        "lon": "139.41"
    },
    {
        "addr": "熊谷市妻沼",
        "isArea": false,
        "pref": "埼玉県",
        "scale": 30,
        "changedScale": "3",
        "lat": "36.22",
        "lon": "139.37"
    },
    {
        "addr": "熊谷市江南",
        "isArea": false,
        "pref": "埼玉県",
        "scale": 30,
        "changedScale": "3",
        "lat": "36.12",
        "lon": "139.34"
    },
    {
        "addr": "行田市本丸",
        "isArea": false,
        "pref": "埼玉県",
        "scale": 30,
        "changedScale": "3",
        "lat": "36.14",
        "lon": "139.46"
    },
    {
        "addr": "行田市南河原",
        "isArea": false,
        "pref": "埼玉県",
        "scale": 30,
        "changedScale": "3",
        "lat": "36.18",
        "lon": "139.44"
    },
    {
        "addr": "本庄市児玉町",
        "isArea": false,
        "pref": "埼玉県",
        "scale": 30,
        "changedScale": "3",
        "lat": "36.19",
        "lon": "139.13"
    },
    {
        "addr": "本庄市本庄",
        "isArea": false,
        "pref": "埼玉県",
        "scale": 20,
        "changedScale": "2",
        "lat": "36.24",
        "lon": "139.19"
    },
    {
        "addr": "東松山市市ノ川",
        "isArea": false,
        "pref": "埼玉県",
        "scale": 30,
        "changedScale": "3",
        "lat": "36.05",
        "lon": "139.39"
    },
    {
        "addr": "東松山市松葉町",
        "isArea": false,
        "pref": "埼玉県",
        "scale": 30,
        "changedScale": "3",
        "lat": "36.04",
        "lon": "139.40"
    },
    {
        "addr": "羽生市東",
        "isArea": false,
        "pref": "埼玉県",
        "scale": 30,
        "changedScale": "3",
        "lat": "36.17",
        "lon": "139.55"
    },
    {
        "addr": "鴻巣市中央",
        "isArea": false,
        "pref": "埼玉県",
        "scale": 30,
        "changedScale": "3",
        "lat": "36.07",
        "lon": "139.52"
    },
    {
        "addr": "鴻巣市川里",
        "isArea": false,
        "pref": "埼玉県",
        "scale": 30,
        "changedScale": "3",
        "lat": "36.11",
        "lon": "139.51"
    },
    {
        "addr": "鴻巣市吹上富士見",
        "isArea": false,
        "pref": "埼玉県",
        "scale": 30,
        "changedScale": "3",
        "lat": "36.10",
        "lon": "139.45"
    },
    {
        "addr": "深谷市川本",
        "isArea": false,
        "pref": "埼玉県",
        "scale": 30,
        "changedScale": "3",
        "lat": "36.14",
        "lon": "139.28"
    },
    {
        "addr": "深谷市花園",
        "isArea": false,
        "pref": "埼玉県",
        "scale": 30,
        "changedScale": "3",
        "lat": "36.13",
        "lon": "139.23"
    },
    {
        "addr": "深谷市普済寺",
        "isArea": false,
        "pref": "埼玉県",
        "scale": 30,
        "changedScale": "3",
        "lat": "36.20",
        "lon": "139.24"
    },
    {
        "addr": "深谷市仲町",
        "isArea": false,
        "pref": "埼玉県",
        "scale": 30,
        "changedScale": "3",
        "lat": "36.20",
        "lon": "139.28"
    },
    {
        "addr": "滑川町福田",
        "isArea": false,
        "pref": "埼玉県",
        "scale": 30,
        "changedScale": "3",
        "lat": "36.07",
        "lon": "139.36"
    },
    {
        "addr": "嵐山町杉山",
        "isArea": false,
        "pref": "埼玉県",
        "scale": 30,
        "changedScale": "3",
        "lat": "36.06",
        "lon": "139.32"
    },
    {
        "addr": "小川町大塚",
        "isArea": false,
        "pref": "埼玉県",
        "scale": 30,
        "changedScale": "3",
        "lat": "36.06",
        "lon": "139.26"
    },
    {
        "addr": "吉見町下細谷",
        "isArea": false,
        "pref": "埼玉県",
        "scale": 30,
        "changedScale": "3",
        "lat": "36.04",
        "lon": "139.45"
    },
    {
        "addr": "鳩山町大豆戸",
        "isArea": false,
        "pref": "埼玉県",
        "scale": 30,
        "changedScale": "3",
        "lat": "35.98",
        "lon": "139.33"
    },
    {
        "addr": "ときがわ町桃木",
        "isArea": false,
        "pref": "埼玉県",
        "scale": 30,
        "changedScale": "3",
        "lat": "36.00",
        "lon": "139.27"
    },
    {
        "addr": "ときがわ町玉川",
        "isArea": false,
        "pref": "埼玉県",
        "scale": 30,
        "changedScale": "3",
        "lat": "36.01",
        "lon": "139.30"
    },
    {
        "addr": "埼玉神川町下阿久原",
        "isArea": false,
        "pref": "埼玉県",
        "scale": 30,
        "changedScale": "3",
        "lat": "36.15",
        "lon": "139.06"
    },
    {
        "addr": "埼玉神川町植竹",
        "isArea": false,
        "pref": "埼玉県",
        "scale": 20,
        "changedScale": "2",
        "lat": "36.21",
        "lon": "139.10"
    },
    {
        "addr": "東秩父村御堂",
        "isArea": false,
        "pref": "埼玉県",
        "scale": 20,
        "changedScale": "2",
        "lat": "36.06",
        "lon": "139.19"
    },
    {
        "addr": "上里町七本木",
        "isArea": false,
        "pref": "埼玉県",
        "scale": 20,
        "changedScale": "2",
        "lat": "36.25",
        "lon": "139.14"
    },
    {
        "addr": "寄居町寄居",
        "isArea": false,
        "pref": "埼玉県",
        "scale": 20,
        "changedScale": "2",
        "lat": "36.12",
        "lon": "139.19"
    },
    {
        "addr": "さいたま岩槻区本丸",
        "isArea": false,
        "pref": "埼玉県",
        "scale": 40,
        "changedScale": "4",
        "lat": "35.95",
        "lon": "139.70"
    },
    {
        "addr": "春日部市粕壁",
        "isArea": false,
        "pref": "埼玉県",
        "scale": 40,
        "changedScale": "4",
        "lat": "35.98",
        "lon": "139.75"
    },
    {
        "addr": "春日部市金崎",
        "isArea": false,
        "pref": "埼玉県",
        "scale": 30,
        "changedScale": "3",
        "lat": "35.99",
        "lon": "139.80"
    },
    {
        "addr": "春日部市谷原新田",
        "isArea": false,
        "pref": "埼玉県",
        "scale": 30,
        "changedScale": "3",
        "lat": "35.96",
        "lon": "139.74"
    },
    {
        "addr": "宮代町笠原",
        "isArea": false,
        "pref": "埼玉県",
        "scale": 40,
        "changedScale": "4",
        "lat": "36.02",
        "lon": "139.72"
    },
    {
        "addr": "さいたま西区指扇",
        "isArea": false,
        "pref": "埼玉県",
        "scale": 30,
        "changedScale": "3",
        "lat": "35.93",
        "lon": "139.58"
    },
    {
        "addr": "さいたま北区宮原",
        "isArea": false,
        "pref": "埼玉県",
        "scale": 30,
        "changedScale": "3",
        "lat": "35.93",
        "lon": "139.62"
    },
    {
        "addr": "さいたま大宮区天沼町",
        "isArea": false,
        "pref": "埼玉県",
        "scale": 30,
        "changedScale": "3",
        "lat": "35.91",
        "lon": "139.65"
    },
    {
        "addr": "さいたま大宮区大門",
        "isArea": false,
        "pref": "埼玉県",
        "scale": 30,
        "changedScale": "3",
        "lat": "35.91",
        "lon": "139.63"
    },
    {
        "addr": "さいたま見沼区堀崎",
        "isArea": false,
        "pref": "埼玉県",
        "scale": 30,
        "changedScale": "3",
        "lat": "35.94",
        "lon": "139.65"
    },
    {
        "addr": "さいたま中央区下落合",
        "isArea": false,
        "pref": "埼玉県",
        "scale": 30,
        "changedScale": "3",
        "lat": "35.88",
        "lon": "139.63"
    },
    {
        "addr": "さいたま浦和区高砂",
        "isArea": false,
        "pref": "埼玉県",
        "scale": 30,
        "changedScale": "3",
        "lat": "35.86",
        "lon": "139.65"
    },
    {
        "addr": "さいたま浦和区常盤",
        "isArea": false,
        "pref": "埼玉県",
        "scale": 20,
        "changedScale": "2",
        "lat": "35.86",
        "lon": "139.64"
    },
    {
        "addr": "さいたま南区別所",
        "isArea": false,
        "pref": "埼玉県",
        "scale": 30,
        "changedScale": "3",
        "lat": "35.84",
        "lon": "139.64"
    },
    {
        "addr": "さいたま緑区中尾",
        "isArea": false,
        "pref": "埼玉県",
        "scale": 30,
        "changedScale": "3",
        "lat": "35.87",
        "lon": "139.68"
    },
    {
        "addr": "川越市新宿町",
        "isArea": false,
        "pref": "埼玉県",
        "scale": 30,
        "changedScale": "3",
        "lat": "35.90",
        "lon": "139.48"
    },
    {
        "addr": "川越市旭町",
        "isArea": false,
        "pref": "埼玉県",
        "scale": 20,
        "changedScale": "2",
        "lat": "35.90",
        "lon": "139.47"
    },
    {
        "addr": "川口市中青木分室",
        "isArea": false,
        "pref": "埼玉県",
        "scale": 30,
        "changedScale": "3",
        "lat": "35.81",
        "lon": "139.72"
    },
    {
        "addr": "川口市安行領家",
        "isArea": false,
        "pref": "埼玉県",
        "scale": 30,
        "changedScale": "3",
        "lat": "35.85",
        "lon": "139.76"
    },
    {
        "addr": "川口市三ツ和",
        "isArea": false,
        "pref": "埼玉県",
        "scale": 20,
        "changedScale": "2",
        "lat": "35.83",
        "lon": "139.74"
    },
    {
        "addr": "上尾市本町",
        "isArea": false,
        "pref": "埼玉県",
        "scale": 30,
        "changedScale": "3",
        "lat": "35.98",
        "lon": "139.59"
    },
    {
        "addr": "草加市中央",
        "isArea": false,
        "pref": "埼玉県",
        "scale": 30,
        "changedScale": "3",
        "lat": "35.83",
        "lon": "139.81"
    },
    {
        "addr": "蕨市中央",
        "isArea": false,
        "pref": "埼玉県",
        "scale": 30,
        "changedScale": "3",
        "lat": "35.83",
        "lon": "139.68"
    },
    {
        "addr": "戸田市上戸田",
        "isArea": false,
        "pref": "埼玉県",
        "scale": 30,
        "changedScale": "3",
        "lat": "35.82",
        "lon": "139.68"
    },
    {
        "addr": "桶川市泉",
        "isArea": false,
        "pref": "埼玉県",
        "scale": 30,
        "changedScale": "3",
        "lat": "36.00",
        "lon": "139.56"
    },
    {
        "addr": "北本市本町",
        "isArea": false,
        "pref": "埼玉県",
        "scale": 30,
        "changedScale": "3",
        "lat": "36.03",
        "lon": "139.53"
    },
    {
        "addr": "八潮市中央",
        "isArea": false,
        "pref": "埼玉県",
        "scale": 30,
        "changedScale": "3",
        "lat": "35.82",
        "lon": "139.84"
    },
    {
        "addr": "蓮田市黒浜",
        "isArea": false,
        "pref": "埼玉県",
        "scale": 30,
        "changedScale": "3",
        "lat": "35.99",
        "lon": "139.66"
    },
    {
        "addr": "坂戸市千代田",
        "isArea": false,
        "pref": "埼玉県",
        "scale": 30,
        "changedScale": "3",
        "lat": "35.96",
        "lon": "139.40"
    },
    {
        "addr": "幸手市東",
        "isArea": false,
        "pref": "埼玉県",
        "scale": 30,
        "changedScale": "3",
        "lat": "36.08",
        "lon": "139.73"
    },
    {
        "addr": "鶴ヶ島市三ツ木",
        "isArea": false,
        "pref": "埼玉県",
        "scale": 30,
        "changedScale": "3",
        "lat": "35.93",
        "lon": "139.39"
    },
    {
        "addr": "白岡市千駄野",
        "isArea": false,
        "pref": "埼玉県",
        "scale": 30,
        "changedScale": "3",
        "lat": "36.02",
        "lon": "139.68"
    },
    {
        "addr": "伊奈町中央",
        "isArea": false,
        "pref": "埼玉県",
        "scale": 30,
        "changedScale": "3",
        "lat": "36.00",
        "lon": "139.62"
    },
    {
        "addr": "毛呂山町中央",
        "isArea": false,
        "pref": "埼玉県",
        "scale": 30,
        "changedScale": "3",
        "lat": "35.94",
        "lon": "139.32"
    },
    {
        "addr": "越生町越生",
        "isArea": false,
        "pref": "埼玉県",
        "scale": 30,
        "changedScale": "3",
        "lat": "35.96",
        "lon": "139.29"
    },
    {
        "addr": "川島町下八ツ林",
        "isArea": false,
        "pref": "埼玉県",
        "scale": 30,
        "changedScale": "3",
        "lat": "35.99",
        "lon": "139.48"
    },
    {
        "addr": "杉戸町清地",
        "isArea": false,
        "pref": "埼玉県",
        "scale": 30,
        "changedScale": "3",
        "lat": "36.03",
        "lon": "139.74"
    },
    {
        "addr": "さいたま桜区道場",
        "isArea": false,
        "pref": "埼玉県",
        "scale": 20,
        "changedScale": "2",
        "lat": "35.86",
        "lon": "139.61"
    },
    {
        "addr": "所沢市北有楽町",
        "isArea": false,
        "pref": "埼玉県",
        "scale": 20,
        "changedScale": "2",
        "lat": "35.80",
        "lon": "139.47"
    },
    {
        "addr": "所沢市並木",
        "isArea": false,
        "pref": "埼玉県",
        "scale": 20,
        "changedScale": "2",
        "lat": "35.80",
        "lon": 139.475
    },
    {
        "addr": "飯能市下直竹",
        "isArea": false,
        "pref": "埼玉県",
        "scale": 20,
        "changedScale": "2",
        "lat": "35.84",
        "lon": "139.28"
    },
    {
        "addr": "飯能市征矢町",
        "isArea": false,
        "pref": "埼玉県",
        "scale": 20,
        "changedScale": "2",
        "lat": "35.84",
        "lon": "139.32"
    },
    {
        "addr": "飯能市名栗",
        "isArea": false,
        "pref": "埼玉県",
        "scale": 20,
        "changedScale": "2",
        "lat": "35.88",
        "lon": "139.18"
    },
    {
        "addr": "飯能市双柳",
        "isArea": false,
        "pref": "埼玉県",
        "scale": 10,
        "changedScale": "1",
        "lat": "35.86",
        "lon": "139.33"
    },
    {
        "addr": "狭山市入間川",
        "isArea": false,
        "pref": "埼玉県",
        "scale": 20,
        "changedScale": "2",
        "lat": "35.85",
        "lon": "139.41"
    },
    {
        "addr": "越谷市越ヶ谷",
        "isArea": false,
        "pref": "埼玉県",
        "scale": 20,
        "changedScale": "2",
        "lat": "35.89",
        "lon": "139.79"
    },
    {
        "addr": "入間市豊岡",
        "isArea": false,
        "pref": "埼玉県",
        "scale": 20,
        "changedScale": "2",
        "lat": "35.84",
        "lon": "139.39"
    },
    {
        "addr": "朝霞市本町",
        "isArea": false,
        "pref": "埼玉県",
        "scale": 20,
        "changedScale": "2",
        "lat": "35.80",
        "lon": "139.59"
    },
    {
        "addr": "志木市本町",
        "isArea": false,
        "pref": "埼玉県",
        "scale": 20,
        "changedScale": "2",
        "lat": "35.83",
        "lon": "139.58"
    },
    {
        "addr": "和光市広沢",
        "isArea": false,
        "pref": "埼玉県",
        "scale": 20,
        "changedScale": "2",
        "lat": "35.78",
        "lon": "139.61"
    },
    {
        "addr": "新座市野火止",
        "isArea": false,
        "pref": "埼玉県",
        "scale": 20,
        "changedScale": "2",
        "lat": "35.79",
        "lon": "139.57"
    },
    {
        "addr": "富士見市鶴馬",
        "isArea": false,
        "pref": "埼玉県",
        "scale": 20,
        "changedScale": "2",
        "lat": "35.86",
        "lon": "139.55"
    },
    {
        "addr": "三郷市中央",
        "isArea": false,
        "pref": "埼玉県",
        "scale": 20,
        "changedScale": "2",
        "lat": "35.83",
        "lon": "139.88"
    },
    {
        "addr": "日高市南平沢",
        "isArea": false,
        "pref": "埼玉県",
        "scale": 20,
        "changedScale": "2",
        "lat": "35.91",
        "lon": "139.34"
    },
    {
        "addr": "吉川市きよみ野",
        "isArea": false,
        "pref": "埼玉県",
        "scale": 20,
        "changedScale": "2",
        "lat": "35.90",
        "lon": "139.86"
    },
    {
        "addr": "ふじみ野市福岡",
        "isArea": false,
        "pref": "埼玉県",
        "scale": 20,
        "changedScale": "2",
        "lat": "35.88",
        "lon": "139.52"
    },
    {
        "addr": "ふじみ野市大井",
        "isArea": false,
        "pref": "埼玉県",
        "scale": 20,
        "changedScale": "2",
        "lat": "35.86",
        "lon": "139.51"
    },
    {
        "addr": "埼玉三芳町藤久保",
        "isArea": false,
        "pref": "埼玉県",
        "scale": 20,
        "changedScale": "2",
        "lat": "35.83",
        "lon": "139.53"
    },
    {
        "addr": "松伏町松伏",
        "isArea": false,
        "pref": "埼玉県",
        "scale": 20,
        "changedScale": "2",
        "lat": "35.93",
        "lon": "139.82"
    },
    {
        "addr": "長瀞町野上下郷",
        "isArea": false,
        "pref": "埼玉県",
        "scale": 30,
        "changedScale": "3",
        "lat": "36.12",
        "lon": "139.10"
    },
    {
        "addr": "長瀞町本野上",
        "isArea": false,
        "pref": "埼玉県",
        "scale": 30,
        "changedScale": "3",
        "lat": "36.11",
        "lon": "139.11"
    },
    {
        "addr": "秩父市上町",
        "isArea": false,
        "pref": "埼玉県",
        "scale": 20,
        "changedScale": "2",
        "lat": "35.99",
        "lon": "139.07"
    },
    {
        "addr": "秩父市近戸町",
        "isArea": false,
        "pref": "埼玉県",
        "scale": 20,
        "changedScale": "2",
        "lat": "36.00",
        "lon": "139.07"
    },
    {
        "addr": "秩父市吉田",
        "isArea": false,
        "pref": "埼玉県",
        "scale": 20,
        "changedScale": "2",
        "lat": "36.04",
        "lon": "139.02"
    },
    {
        "addr": "秩父市荒川",
        "isArea": false,
        "pref": "埼玉県",
        "scale": 20,
        "changedScale": "2",
        "lat": "35.96",
        "lon": "139.03"
    },
    {
        "addr": "秩父市中津川",
        "isArea": false,
        "pref": "埼玉県",
        "scale": 10,
        "changedScale": "1",
        "lat": "36.00",
        "lon": "138.80"
    },
    {
        "addr": "秩父市大滝",
        "isArea": false,
        "pref": "埼玉県",
        "scale": 10,
        "changedScale": "1",
        "lat": "35.95",
        "lon": "138.94"
    },
    {
        "addr": "横瀬町横瀬",
        "isArea": false,
        "pref": "埼玉県",
        "scale": 20,
        "changedScale": "2",
        "lat": "35.99",
        "lon": "139.10"
    },
    {
        "addr": "皆野町皆野",
        "isArea": false,
        "pref": "埼玉県",
        "scale": 20,
        "changedScale": "2",
        "lat": "36.07",
        "lon": "139.10"
    },
    {
        "addr": "小鹿野町両神薄",
        "isArea": false,
        "pref": "埼玉県",
        "scale": 10,
        "changedScale": "1",
        "lat": "36.02",
        "lon": "138.90"
    },
    {
        "addr": "千葉花見川区花島町",
        "isArea": false,
        "pref": "千葉県",
        "scale": 30,
        "changedScale": "3",
        "lat": "35.68",
        "lon": "140.10"
    },
    {
        "addr": "船橋市湊町",
        "isArea": false,
        "pref": "千葉県",
        "scale": 30,
        "changedScale": "3",
        "lat": "35.69",
        "lon": "139.98"
    },
    {
        "addr": "松戸市西馬橋",
        "isArea": false,
        "pref": "千葉県",
        "scale": 30,
        "changedScale": "3",
        "lat": "35.81",
        "lon": "139.91"
    },
    {
        "addr": "松戸市根本",
        "isArea": false,
        "pref": "千葉県",
        "scale": 20,
        "changedScale": "2",
        "lat": "35.79",
        "lon": "139.90"
    },
    {
        "addr": "野田市鶴奉",
        "isArea": false,
        "pref": "千葉県",
        "scale": 30,
        "changedScale": "3",
        "lat": "35.96",
        "lon": "139.87"
    },
    {
        "addr": "野田市東宝珠花",
        "isArea": false,
        "pref": "千葉県",
        "scale": 30,
        "changedScale": "3",
        "lat": "36.03",
        "lon": "139.82"
    },
    {
        "addr": "習志野市鷺沼",
        "isArea": false,
        "pref": "千葉県",
        "scale": 30,
        "changedScale": "3",
        "lat": "35.68",
        "lon": "140.03"
    },
    {
        "addr": "柏市旭町",
        "isArea": false,
        "pref": "千葉県",
        "scale": 30,
        "changedScale": "3",
        "lat": "35.86",
        "lon": "139.96"
    },
    {
        "addr": "柏市柏",
        "isArea": false,
        "pref": "千葉県",
        "scale": 30,
        "changedScale": "3",
        "lat": "35.87",
        "lon": "139.98"
    },
    {
        "addr": "柏市大島田",
        "isArea": false,
        "pref": "千葉県",
        "scale": 20,
        "changedScale": "2",
        "lat": "35.84",
        "lon": "140.01"
    },
    {
        "addr": "八千代市大和田新田",
        "isArea": false,
        "pref": "千葉県",
        "scale": 30,
        "changedScale": "3",
        "lat": "35.72",
        "lon": "140.10"
    },
    {
        "addr": "鎌ケ谷市新鎌ケ谷",
        "isArea": false,
        "pref": "千葉県",
        "scale": 30,
        "changedScale": "3",
        "lat": "35.78",
        "lon": "140.00"
    },
    {
        "addr": "浦安市日の出",
        "isArea": false,
        "pref": "千葉県",
        "scale": 30,
        "changedScale": "3",
        "lat": "35.64",
        "lon": "139.92"
    },
    {
        "addr": "浦安市猫実",
        "isArea": false,
        "pref": "千葉県",
        "scale": 20,
        "changedScale": "2",
        "lat": "35.65",
        "lon": "139.90"
    },
    {
        "addr": "四街道市鹿渡",
        "isArea": false,
        "pref": "千葉県",
        "scale": 30,
        "changedScale": "3",
        "lat": "35.67",
        "lon": "140.17"
    },
    {
        "addr": "印西市大森",
        "isArea": false,
        "pref": "千葉県",
        "scale": 30,
        "changedScale": "3",
        "lat": "35.83",
        "lon": "140.15"
    },
    {
        "addr": "印西市笠神",
        "isArea": false,
        "pref": "千葉県",
        "scale": 20,
        "changedScale": "2",
        "lat": "35.82",
        "lon": "140.20"
    },
    {
        "addr": "印西市美瀬",
        "isArea": false,
        "pref": "千葉県",
        "scale": 20,
        "changedScale": "2",
        "lat": "35.78",
        "lon": "140.20"
    },
    {
        "addr": "白井市復",
        "isArea": false,
        "pref": "千葉県",
        "scale": 30,
        "changedScale": "3",
        "lat": "35.79",
        "lon": "140.06"
    },
    {
        "addr": "千葉中央区中央港",
        "isArea": false,
        "pref": "千葉県",
        "scale": 20,
        "changedScale": "2",
        "lat": "35.60",
        "lon": "140.10"
    },
    {
        "addr": "千葉中央区千葉市役所",
        "isArea": false,
        "pref": "千葉県",
        "scale": 20,
        "changedScale": "2",
        "lat": "35.61",
        "lon": "140.10"
    },
    {
        "addr": "千葉稲毛区園生町",
        "isArea": false,
        "pref": "千葉県",
        "scale": 20,
        "changedScale": "2",
        "lat": "35.65",
        "lon": "140.13"
    },
    {
        "addr": "千葉若葉区小倉台",
        "isArea": false,
        "pref": "千葉県",
        "scale": 20,
        "changedScale": "2",
        "lat": "35.63",
        "lon": "140.17"
    },
    {
        "addr": "千葉緑区おゆみ野",
        "isArea": false,
        "pref": "千葉県",
        "scale": 20,
        "changedScale": "2",
        "lat": "35.56",
        "lon": "140.18"
    },
    {
        "addr": "千葉美浜区ひび野",
        "isArea": false,
        "pref": "千葉県",
        "scale": 20,
        "changedScale": "2",
        "lat": "35.64",
        "lon": "140.04"
    },
    {
        "addr": "千葉美浜区稲毛海岸",
        "isArea": false,
        "pref": "千葉県",
        "scale": 20,
        "changedScale": "2",
        "lat": "35.63",
        "lon": "140.08"
    },
    {
        "addr": "市川市八幡",
        "isArea": false,
        "pref": "千葉県",
        "scale": 20,
        "changedScale": "2",
        "lat": "35.72",
        "lon": "139.93"
    },
    {
        "addr": "成田国際空港",
        "isArea": false,
        "pref": "千葉県",
        "scale": 20,
        "changedScale": "2",
        "lat": "35.77",
        "lon": "140.38"
    },
    {
        "addr": "成田市名古屋",
        "isArea": false,
        "pref": "千葉県",
        "scale": 20,
        "changedScale": "2",
        "lat": "35.86",
        "lon": "140.36"
    },
    {
        "addr": "成田市中台",
        "isArea": false,
        "pref": "千葉県",
        "scale": 20,
        "changedScale": "2",
        "lat": "35.78",
        "lon": "140.31"
    },
    {
        "addr": "成田市役所",
        "isArea": false,
        "pref": "千葉県",
        "scale": 20,
        "changedScale": "2",
        "lat": "35.78",
        "lon": "140.32"
    },
    {
        "addr": "成田市猿山",
        "isArea": false,
        "pref": "千葉県",
        "scale": 20,
        "changedScale": "2",
        "lat": "35.88",
        "lon": "140.35"
    },
    {
        "addr": "成田市松子",
        "isArea": false,
        "pref": "千葉県",
        "scale": 20,
        "changedScale": "2",
        "lat": "35.83",
        "lon": "140.42"
    },
    {
        "addr": "千葉佐倉市海隣寺町",
        "isArea": false,
        "pref": "千葉県",
        "scale": 20,
        "changedScale": "2",
        "lat": "35.72",
        "lon": "140.22"
    },
    {
        "addr": "市原市姉崎",
        "isArea": false,
        "pref": "千葉県",
        "scale": 20,
        "changedScale": "2",
        "lat": "35.48",
        "lon": "140.05"
    },
    {
        "addr": "市原市国分寺台中央",
        "isArea": false,
        "pref": "千葉県",
        "scale": 10,
        "changedScale": "1",
        "lat": "35.50",
        "lon": "140.12"
    },
    {
        "addr": "流山市平和台",
        "isArea": false,
        "pref": "千葉県",
        "scale": 20,
        "changedScale": "2",
        "lat": "35.86",
        "lon": "139.90"
    },
    {
        "addr": "我孫子市我孫子",
        "isArea": false,
        "pref": "千葉県",
        "scale": 20,
        "changedScale": "2",
        "lat": "35.86",
        "lon": "140.03"
    },
    {
        "addr": "八街市八街",
        "isArea": false,
        "pref": "千葉県",
        "scale": 20,
        "changedScale": "2",
        "lat": "35.67",
        "lon": "140.32"
    },
    {
        "addr": "富里市七栄",
        "isArea": false,
        "pref": "千葉県",
        "scale": 20,
        "changedScale": "2",
        "lat": "35.73",
        "lon": "140.34"
    },
    {
        "addr": "酒々井町中央台",
        "isArea": false,
        "pref": "千葉県",
        "scale": 20,
        "changedScale": "2",
        "lat": "35.72",
        "lon": "140.27"
    },
    {
        "addr": "栄町安食台",
        "isArea": false,
        "pref": "千葉県",
        "scale": 20,
        "changedScale": "2",
        "lat": "35.84",
        "lon": "140.24"
    },
    {
        "addr": "茂原市道表",
        "isArea": false,
        "pref": "千葉県",
        "scale": 20,
        "changedScale": "2",
        "lat": "35.43",
        "lon": "140.29"
    },
    {
        "addr": "東金市東新宿",
        "isArea": false,
        "pref": "千葉県",
        "scale": 20,
        "changedScale": "2",
        "lat": "35.56",
        "lon": "140.37"
    },
    {
        "addr": "東金市日吉台",
        "isArea": false,
        "pref": "千葉県",
        "scale": 20,
        "changedScale": "2",
        "lat": "35.57",
        "lon": "140.33"
    },
    {
        "addr": "東金市東岩崎",
        "isArea": false,
        "pref": "千葉県",
        "scale": 10,
        "changedScale": "1",
        "lat": "35.56",
        "lon": 140.375
    },
    {
        "addr": "旭市南堀之内",
        "isArea": false,
        "pref": "千葉県",
        "scale": 20,
        "changedScale": "2",
        "lat": "35.77",
        "lon": "140.62"
    },
    {
        "addr": "旭市高生",
        "isArea": false,
        "pref": "千葉県",
        "scale": 10,
        "changedScale": "1",
        "lat": "35.73",
        "lon": "140.69"
    },
    {
        "addr": "旭市萩園",
        "isArea": false,
        "pref": "千葉県",
        "scale": 10,
        "changedScale": "1",
        "lat": "35.71",
        "lon": "140.71"
    },
    {
        "addr": "旭市ニ",
        "isArea": false,
        "pref": "千葉県",
        "scale": 10,
        "changedScale": "1",
        "lat": "35.72",
        "lon": "140.65"
    },
    {
        "addr": "香取市佐原平田",
        "isArea": false,
        "pref": "千葉県",
        "scale": 20,
        "changedScale": "2",
        "lat": "35.89",
        "lon": "140.51"
    },
    {
        "addr": "香取市佐原諏訪台",
        "isArea": false,
        "pref": "千葉県",
        "scale": 20,
        "changedScale": "2",
        "lat": "35.90",
        "lon": "140.49"
    },
    {
        "addr": "香取市役所",
        "isArea": false,
        "pref": "千葉県",
        "scale": 20,
        "changedScale": "2",
        "lat": "35.90",
        "lon": "140.50"
    },
    {
        "addr": "香取市羽根川",
        "isArea": false,
        "pref": "千葉県",
        "scale": 20,
        "changedScale": "2",
        "lat": "35.85",
        "lon": "140.60"
    },
    {
        "addr": "香取市仁良",
        "isArea": false,
        "pref": "千葉県",
        "scale": 20,
        "changedScale": "2",
        "lat": "35.80",
        "lon": "140.58"
    },
    {
        "addr": "香取市岩部",
        "isArea": false,
        "pref": "千葉県",
        "scale": 20,
        "changedScale": "2",
        "lat": "35.81",
        "lon": "140.50"
    },
    {
        "addr": "山武市松尾町富士見台",
        "isArea": false,
        "pref": "千葉県",
        "scale": 20,
        "changedScale": "2",
        "lat": "35.64",
        "lon": "140.45"
    },
    {
        "addr": "山武市蓮沼ニ",
        "isArea": false,
        "pref": "千葉県",
        "scale": 20,
        "changedScale": "2",
        "lat": "35.59",
        "lon": "140.50"
    },
    {
        "addr": "山武市埴谷",
        "isArea": false,
        "pref": "千葉県",
        "scale": 20,
        "changedScale": "2",
        "lat": "35.64",
        "lon": "140.38"
    },
    {
        "addr": "山武市殿台",
        "isArea": false,
        "pref": "千葉県",
        "scale": 10,
        "changedScale": "1",
        "lat": "35.60",
        "lon": "140.41"
    },
    {
        "addr": "山武市蓮沼ハ",
        "isArea": false,
        "pref": "千葉県",
        "scale": 10,
        "changedScale": "1",
        "lat": "35.60",
        "lon": "140.50"
    },
    {
        "addr": "山武市松尾町五反田",
        "isArea": false,
        "pref": "千葉県",
        "scale": 10,
        "changedScale": "1",
        "lat": "35.64",
        "lon": "140.46"
    },
    {
        "addr": "神崎町神崎本宿",
        "isArea": false,
        "pref": "千葉県",
        "scale": 20,
        "changedScale": "2",
        "lat": "35.90",
        "lon": "140.40"
    },
    {
        "addr": "多古町多古",
        "isArea": false,
        "pref": "千葉県",
        "scale": 20,
        "changedScale": "2",
        "lat": "35.74",
        "lon": "140.47"
    },
    {
        "addr": "芝山町小池",
        "isArea": false,
        "pref": "千葉県",
        "scale": 20,
        "changedScale": "2",
        "lat": "35.69",
        "lon": "140.41"
    },
    {
        "addr": "睦沢町下之郷",
        "isArea": false,
        "pref": "千葉県",
        "scale": 20,
        "changedScale": "2",
        "lat": "35.36",
        "lon": "140.32"
    },
    {
        "addr": "長南町総合グラウンド",
        "isArea": false,
        "pref": "千葉県",
        "scale": 20,
        "changedScale": "2",
        "lat": "35.38",
        "lon": "140.24"
    },
    {
        "addr": "長南町長南",
        "isArea": false,
        "pref": "千葉県",
        "scale": 20,
        "changedScale": "2",
        "lat": "35.39",
        "lon": "140.24"
    },
    {
        "addr": "銚子市川口町",
        "isArea": false,
        "pref": "千葉県",
        "scale": 10,
        "changedScale": "1",
        "lat": "35.74",
        "lon": "140.86"
    },
    {
        "addr": "銚子市小畑新町",
        "isArea": false,
        "pref": "千葉県",
        "scale": 10,
        "changedScale": "1",
        "lat": "35.72",
        "lon": "140.86"
    },
    {
        "addr": "匝瑳市八日市場ハ",
        "isArea": false,
        "pref": "千葉県",
        "scale": 10,
        "changedScale": "1",
        "lat": "35.71",
        "lon": "140.56"
    },
    {
        "addr": "匝瑳市今泉",
        "isArea": false,
        "pref": "千葉県",
        "scale": 10,
        "changedScale": "1",
        "lat": "35.66",
        "lon": "140.57"
    },
    {
        "addr": "大網白里市大網",
        "isArea": false,
        "pref": "千葉県",
        "scale": 10,
        "changedScale": "1",
        "lat": "35.52",
        "lon": "140.32"
    },
    {
        "addr": "東庄町笹川",
        "isArea": false,
        "pref": "千葉県",
        "scale": 10,
        "changedScale": "1",
        "lat": "35.84",
        "lon": "140.67"
    },
    {
        "addr": "九十九里町片貝",
        "isArea": false,
        "pref": "千葉県",
        "scale": 10,
        "changedScale": "1",
        "lat": "35.53",
        "lon": "140.44"
    },
    {
        "addr": "横芝光町宮川",
        "isArea": false,
        "pref": "千葉県",
        "scale": 10,
        "changedScale": "1",
        "lat": "35.67",
        "lon": "140.50"
    },
    {
        "addr": "横芝光町栗山",
        "isArea": false,
        "pref": "千葉県",
        "scale": 10,
        "changedScale": "1",
        "lat": "35.66",
        "lon": "140.50"
    },
    {
        "addr": "一宮町一宮",
        "isArea": false,
        "pref": "千葉県",
        "scale": 10,
        "changedScale": "1",
        "lat": "35.37",
        "lon": "140.37"
    },
    {
        "addr": "長生村本郷",
        "isArea": false,
        "pref": "千葉県",
        "scale": 10,
        "changedScale": "1",
        "lat": "35.41",
        "lon": "140.35"
    },
    {
        "addr": "白子町関",
        "isArea": false,
        "pref": "千葉県",
        "scale": 10,
        "changedScale": "1",
        "lat": "35.45",
        "lon": "140.37"
    },
    {
        "addr": "長柄町桜谷",
        "isArea": false,
        "pref": "千葉県",
        "scale": 10,
        "changedScale": "1",
        "lat": "35.43",
        "lon": "140.23"
    },
    {
        "addr": "館山市北条",
        "isArea": false,
        "pref": "千葉県",
        "scale": 20,
        "changedScale": "2",
        "lat": "35.00",
        "lon": "139.87"
    },
    {
        "addr": "館山市長須賀",
        "isArea": false,
        "pref": "千葉県",
        "scale": 10,
        "changedScale": "1",
        "lat": "34.99",
        "lon": "139.87"
    },
    {
        "addr": "木更津市富士見",
        "isArea": false,
        "pref": "千葉県",
        "scale": 20,
        "changedScale": "2",
        "lat": "35.38",
        "lon": "139.92"
    },
    {
        "addr": "木更津市太田",
        "isArea": false,
        "pref": "千葉県",
        "scale": 10,
        "changedScale": "1",
        "lat": "35.38",
        "lon": "139.94"
    },
    {
        "addr": "君津市久留里市場",
        "isArea": false,
        "pref": "千葉県",
        "scale": 20,
        "changedScale": "2",
        "lat": "35.30",
        "lon": "140.08"
    },
    {
        "addr": "君津市久保",
        "isArea": false,
        "pref": "千葉県",
        "scale": 20,
        "changedScale": "2",
        "lat": "35.33",
        "lon": "139.90"
    },
    {
        "addr": "富津市下飯野",
        "isArea": false,
        "pref": "千葉県",
        "scale": 20,
        "changedScale": "2",
        "lat": "35.30",
        "lon": "139.86"
    },
    {
        "addr": "袖ケ浦市坂戸市場",
        "isArea": false,
        "pref": "千葉県",
        "scale": 20,
        "changedScale": "2",
        "lat": "35.43",
        "lon": "139.95"
    },
    {
        "addr": "南房総市岩糸",
        "isArea": false,
        "pref": "千葉県",
        "scale": 20,
        "changedScale": "2",
        "lat": "35.02",
        "lon": "139.96"
    },
    {
        "addr": "南房総市谷向",
        "isArea": false,
        "pref": "千葉県",
        "scale": 20,
        "changedScale": "2",
        "lat": "35.03",
        "lon": "139.90"
    },
    {
        "addr": "南房総市上堀",
        "isArea": false,
        "pref": "千葉県",
        "scale": 10,
        "changedScale": "1",
        "lat": "35.04",
        "lon": "139.89"
    },
    {
        "addr": "南房総市富浦町青木",
        "isArea": false,
        "pref": "千葉県",
        "scale": 10,
        "changedScale": "1",
        "lat": "35.04",
        "lon": "139.84"
    },
    {
        "addr": "南房総市白浜町白浜",
        "isArea": false,
        "pref": "千葉県",
        "scale": 10,
        "changedScale": "1",
        "lat": "34.91",
        "lon": "139.90"
    },
    {
        "addr": "南房総市千倉町瀬戸",
        "isArea": false,
        "pref": "千葉県",
        "scale": 10,
        "changedScale": "1",
        "lat": "34.98",
        "lon": "139.96"
    },
    {
        "addr": "鋸南町下佐久間",
        "isArea": false,
        "pref": "千葉県",
        "scale": 20,
        "changedScale": "2",
        "lat": "35.11",
        "lon": "139.84"
    },
    {
        "addr": "勝浦市墨名",
        "isArea": false,
        "pref": "千葉県",
        "scale": 10,
        "changedScale": "1",
        "lat": "35.15",
        "lon": "140.31"
    },
    {
        "addr": "勝浦市新官",
        "isArea": false,
        "pref": "千葉県",
        "scale": 10,
        "changedScale": "1",
        "lat": "35.16",
        "lon": "140.32"
    },
    {
        "addr": "鴨川市八色",
        "isArea": false,
        "pref": "千葉県",
        "scale": 10,
        "changedScale": "1",
        "lat": "35.11",
        "lon": "140.10"
    },
    {
        "addr": "鴨川市横渚",
        "isArea": false,
        "pref": "千葉県",
        "scale": 10,
        "changedScale": "1",
        "lat": "35.12",
        "lon": "140.10"
    },
    {
        "addr": "いすみ市岬町長者",
        "isArea": false,
        "pref": "千葉県",
        "scale": 10,
        "changedScale": "1",
        "lat": "35.30",
        "lon": "140.39"
    },
    {
        "addr": "いすみ市国府台",
        "isArea": false,
        "pref": "千葉県",
        "scale": 10,
        "changedScale": "1",
        "lat": "35.28",
        "lon": "140.31"
    },
    {
        "addr": "大多喜町大多喜",
        "isArea": false,
        "pref": "千葉県",
        "scale": 10,
        "changedScale": "1",
        "lat": "35.29",
        "lon": "140.25"
    },
    {
        "addr": "東京千代田区大手町",
        "isArea": false,
        "pref": "東京都",
        "scale": 30,
        "changedScale": "3",
        "lat": "35.69",
        "lon": "139.76"
    },
    {
        "addr": "東京千代田区富士見",
        "isArea": false,
        "pref": "東京都",
        "scale": 20,
        "changedScale": "2",
        "lat": "35.70",
        "lon": "139.75"
    },
    {
        "addr": "東京千代田区麹町",
        "isArea": false,
        "pref": "東京都",
        "scale": 20,
        "changedScale": "2",
        "lat": "35.68",
        "lon": "139.74"
    },
    {
        "addr": "東京中央区勝どき",
        "isArea": false,
        "pref": "東京都",
        "scale": 30,
        "changedScale": "3",
        "lat": "35.66",
        "lon": "139.78"
    },
    {
        "addr": "東京中央区築地",
        "isArea": false,
        "pref": "東京都",
        "scale": 20,
        "changedScale": "2",
        "lat": "35.67",
        "lon": "139.77"
    },
    {
        "addr": "東京中央区日本橋兜町",
        "isArea": false,
        "pref": "東京都",
        "scale": 20,
        "changedScale": "2",
        "lat": "35.68",
        "lon": "139.78"
    },
    {
        "addr": "東京新宿区上落合",
        "isArea": false,
        "pref": "東京都",
        "scale": 30,
        "changedScale": "3",
        "lat": "35.71",
        "lon": "139.69"
    },
    {
        "addr": "東京新宿区西新宿",
        "isArea": false,
        "pref": "東京都",
        "scale": 20,
        "changedScale": "2",
        "lat": "35.69",
        "lon": "139.70"
    },
    {
        "addr": "東京新宿区歌舞伎町",
        "isArea": false,
        "pref": "東京都",
        "scale": 20,
        "changedScale": "2",
        "lat": "35.69",
        "lon": 139.70499999999998
    },
    {
        "addr": "東京新宿区百人町",
        "isArea": false,
        "pref": "東京都",
        "scale": 20,
        "changedScale": "2",
        "lat": "35.71",
        "lon": "139.70"
    },
    {
        "addr": "東京文京区本郷",
        "isArea": false,
        "pref": "東京都",
        "scale": 30,
        "changedScale": "3",
        "lat": "35.71",
        "lon": "139.76"
    },
    {
        "addr": "東京文京区大塚",
        "isArea": false,
        "pref": "東京都",
        "scale": 30,
        "changedScale": "3",
        "lat": "35.72",
        "lon": "139.73"
    },
    {
        "addr": "東京文京区スポーツセンタ",
        "isArea": false,
        "pref": "東京都",
        "scale": 20,
        "changedScale": "2",
        "lat": "35.72",
        "lon": "139.74"
    },
    {
        "addr": "東京江東区越中島",
        "isArea": false,
        "pref": "東京都",
        "scale": 30,
        "changedScale": "3",
        "lat": "35.67",
        "lon": "139.79"
    },
    {
        "addr": "東京江東区森下",
        "isArea": false,
        "pref": "東京都",
        "scale": 30,
        "changedScale": "3",
        "lat": "35.68",
        "lon": "139.81"
    },
    {
        "addr": "東京江東区青海",
        "isArea": false,
        "pref": "東京都",
        "scale": 20,
        "changedScale": "2",
        "lat": "35.62",
        "lon": "139.78"
    },
    {
        "addr": "東京江東区東陽",
        "isArea": false,
        "pref": "東京都",
        "scale": 20,
        "changedScale": "2",
        "lat": "35.67",
        "lon": "139.82"
    },
    {
        "addr": "東京江東区亀戸",
        "isArea": false,
        "pref": "東京都",
        "scale": 20,
        "changedScale": "2",
        "lat": "35.70",
        "lon": "139.83"
    },
    {
        "addr": "東京江東区枝川",
        "isArea": false,
        "pref": "東京都",
        "scale": 20,
        "changedScale": "2",
        "lat": "35.66",
        "lon": "139.81"
    },
    {
        "addr": "東京品川区北品川",
        "isArea": false,
        "pref": "東京都",
        "scale": 30,
        "changedScale": "3",
        "lat": "35.62",
        "lon": "139.74"
    },
    {
        "addr": "東京品川区平塚",
        "isArea": false,
        "pref": "東京都",
        "scale": 30,
        "changedScale": "3",
        "lat": "35.61",
        "lon": "139.71"
    },
    {
        "addr": "東京品川区広町",
        "isArea": false,
        "pref": "東京都",
        "scale": 20,
        "changedScale": "2",
        "lat": "35.61",
        "lon": "139.73"
    },
    {
        "addr": "東京国際空港",
        "isArea": false,
        "pref": "東京都",
        "scale": 30,
        "changedScale": "3",
        "lat": "35.55",
        "lon": "139.78"
    },
    {
        "addr": "東京大田区本羽田",
        "isArea": false,
        "pref": "東京都",
        "scale": 30,
        "changedScale": "3",
        "lat": "35.55",
        "lon": "139.73"
    },
    {
        "addr": "東京大田区多摩川",
        "isArea": false,
        "pref": "東京都",
        "scale": 30,
        "changedScale": "3",
        "lat": "35.56",
        "lon": "139.70"
    },
    {
        "addr": "東京大田区蒲田",
        "isArea": false,
        "pref": "東京都",
        "scale": 20,
        "changedScale": "2",
        "lat": "35.56",
        "lon": "139.72"
    },
    {
        "addr": "東京大田区大森東",
        "isArea": false,
        "pref": "東京都",
        "scale": 20,
        "changedScale": "2",
        "lat": "35.58",
        "lon": "139.74"
    },
    {
        "addr": "東京世田谷区三軒茶屋",
        "isArea": false,
        "pref": "東京都",
        "scale": 30,
        "changedScale": "3",
        "lat": "35.64",
        "lon": "139.67"
    },
    {
        "addr": "東京世田谷区世田谷",
        "isArea": false,
        "pref": "東京都",
        "scale": 20,
        "changedScale": "2",
        "lat": "35.65",
        "lon": "139.65"
    },
    {
        "addr": "東京世田谷区中町",
        "isArea": false,
        "pref": "東京都",
        "scale": 20,
        "changedScale": "2",
        "lat": "35.61",
        "lon": "139.65"
    },
    {
        "addr": "東京世田谷区成城",
        "isArea": false,
        "pref": "東京都",
        "scale": 20,
        "changedScale": "2",
        "lat": "35.64",
        "lon": "139.60"
    },
    {
        "addr": "東京渋谷区宇田川町",
        "isArea": false,
        "pref": "東京都",
        "scale": 30,
        "changedScale": "3",
        "lat": "35.66",
        "lon": "139.70"
    },
    {
        "addr": "東京渋谷区本町",
        "isArea": false,
        "pref": "東京都",
        "scale": 30,
        "changedScale": "3",
        "lat": "35.68",
        "lon": "139.68"
    },
    {
        "addr": "東京中野区中野",
        "isArea": false,
        "pref": "東京都",
        "scale": 30,
        "changedScale": "3",
        "lat": "35.71",
        "lon": "139.66"
    },
    {
        "addr": "東京中野区江古田",
        "isArea": false,
        "pref": "東京都",
        "scale": 30,
        "changedScale": "3",
        "lat": "35.73",
        "lon": "139.67"
    },
    {
        "addr": "東京中野区中央",
        "isArea": false,
        "pref": "東京都",
        "scale": 20,
        "changedScale": "2",
        "lat": "35.70",
        "lon": "139.67"
    },
    {
        "addr": "東京杉並区高井戸",
        "isArea": false,
        "pref": "東京都",
        "scale": 30,
        "changedScale": "3",
        "lat": "35.69",
        "lon": "139.62"
    },
    {
        "addr": "東京杉並区阿佐谷",
        "isArea": false,
        "pref": "東京都",
        "scale": 20,
        "changedScale": "2",
        "lat": "35.70",
        "lon": "139.64"
    },
    {
        "addr": "東京杉並区桃井",
        "isArea": false,
        "pref": "東京都",
        "scale": 20,
        "changedScale": "2",
        "lat": "35.71",
        "lon": "139.61"
    },
    {
        "addr": "東京北区西ヶ原",
        "isArea": false,
        "pref": "東京都",
        "scale": 30,
        "changedScale": "3",
        "lat": "35.75",
        "lon": "139.74"
    },
    {
        "addr": "東京北区赤羽南",
        "isArea": false,
        "pref": "東京都",
        "scale": 20,
        "changedScale": "2",
        "lat": "35.78",
        "lon": "139.72"
    },
    {
        "addr": "東京荒川区東尾久",
        "isArea": false,
        "pref": "東京都",
        "scale": 30,
        "changedScale": "3",
        "lat": "35.75",
        "lon": "139.77"
    },
    {
        "addr": "東京荒川区荒川",
        "isArea": false,
        "pref": "東京都",
        "scale": 20,
        "changedScale": "2",
        "lat": "35.74",
        "lon": "139.78"
    },
    {
        "addr": "東京板橋区相生町",
        "isArea": false,
        "pref": "東京都",
        "scale": 30,
        "changedScale": "3",
        "lat": "35.78",
        "lon": "139.68"
    },
    {
        "addr": "東京板橋区高島平",
        "isArea": false,
        "pref": "東京都",
        "scale": 20,
        "changedScale": "2",
        "lat": "35.79",
        "lon": "139.66"
    },
    {
        "addr": "東京板橋区板橋",
        "isArea": false,
        "pref": "東京都",
        "scale": 20,
        "changedScale": "2",
        "lat": "35.75",
        "lon": "139.71"
    },
    {
        "addr": "東京練馬区豊玉北",
        "isArea": false,
        "pref": "東京都",
        "scale": 30,
        "changedScale": "3",
        "lat": "35.74",
        "lon": "139.65"
    },
    {
        "addr": "東京練馬区東大泉",
        "isArea": false,
        "pref": "東京都",
        "scale": 30,
        "changedScale": "3",
        "lat": "35.75",
        "lon": "139.59"
    },
    {
        "addr": "東京練馬区光が丘",
        "isArea": false,
        "pref": "東京都",
        "scale": 30,
        "changedScale": "3",
        "lat": "35.76",
        "lon": "139.63"
    },
    {
        "addr": "東京足立区中央本町",
        "isArea": false,
        "pref": "東京都",
        "scale": 30,
        "changedScale": "3",
        "lat": "35.77",
        "lon": "139.80"
    },
    {
        "addr": "東京足立区神明南",
        "isArea": false,
        "pref": "東京都",
        "scale": 30,
        "changedScale": "3",
        "lat": "35.79",
        "lon": "139.83"
    },
    {
        "addr": "東京足立区伊興",
        "isArea": false,
        "pref": "東京都",
        "scale": 30,
        "changedScale": "3",
        "lat": "35.79",
        "lon": "139.78"
    },
    {
        "addr": "東京足立区千住中居町",
        "isArea": false,
        "pref": "東京都",
        "scale": 20,
        "changedScale": "2",
        "lat": "35.75",
        "lon": "139.80"
    },
    {
        "addr": "東京江戸川区中央",
        "isArea": false,
        "pref": "東京都",
        "scale": 30,
        "changedScale": "3",
        "lat": "35.71",
        "lon": "139.87"
    },
    {
        "addr": "東京江戸川区鹿骨",
        "isArea": false,
        "pref": "東京都",
        "scale": 30,
        "changedScale": "3",
        "lat": "35.71",
        "lon": "139.89"
    },
    {
        "addr": "東京江戸川区船堀",
        "isArea": false,
        "pref": "東京都",
        "scale": 30,
        "changedScale": "3",
        "lat": "35.68",
        "lon": "139.87"
    },
    {
        "addr": "東京港区海岸",
        "isArea": false,
        "pref": "東京都",
        "scale": 20,
        "changedScale": "2",
        "lat": "35.64",
        "lon": "139.75"
    },
    {
        "addr": "東京港区南青山",
        "isArea": false,
        "pref": "東京都",
        "scale": 20,
        "changedScale": "2",
        "lat": "35.67",
        "lon": "139.72"
    },
    {
        "addr": "東京港区白金",
        "isArea": false,
        "pref": "東京都",
        "scale": 20,
        "changedScale": "2",
        "lat": "35.64",
        "lon": "139.73"
    },
    {
        "addr": "東京台東区東上野",
        "isArea": false,
        "pref": "東京都",
        "scale": 20,
        "changedScale": "2",
        "lat": "35.71",
        "lon": "139.78"
    },
    {
        "addr": "東京台東区千束",
        "isArea": false,
        "pref": "東京都",
        "scale": 20,
        "changedScale": "2",
        "lat": "35.72",
        "lon": "139.80"
    },
    {
        "addr": "東京墨田区横川",
        "isArea": false,
        "pref": "東京都",
        "scale": 20,
        "changedScale": "2",
        "lat": "35.70",
        "lon": "139.82"
    },
    {
        "addr": "東京墨田区吾妻橋",
        "isArea": false,
        "pref": "東京都",
        "scale": 20,
        "changedScale": "2",
        "lat": "35.71",
        "lon": "139.80"
    },
    {
        "addr": "東京墨田区東向島",
        "isArea": false,
        "pref": "東京都",
        "scale": 20,
        "changedScale": "2",
        "lat": "35.72",
        "lon": "139.82"
    },
    {
        "addr": "東京目黒区中央町",
        "isArea": false,
        "pref": "東京都",
        "scale": 20,
        "changedScale": "2",
        "lat": "35.63",
        "lon": "139.69"
    },
    {
        "addr": "東京豊島区南池袋",
        "isArea": false,
        "pref": "東京都",
        "scale": 20,
        "changedScale": "2",
        "lat": "35.73",
        "lon": "139.72"
    },
    {
        "addr": "東京葛飾区立石",
        "isArea": false,
        "pref": "東京都",
        "scale": 20,
        "changedScale": "2",
        "lat": "35.74",
        "lon": "139.85"
    },
    {
        "addr": "東京葛飾区金町",
        "isArea": false,
        "pref": "東京都",
        "scale": 20,
        "changedScale": "2",
        "lat": "35.76",
        "lon": "139.87"
    },
    {
        "addr": "八王子市堀之内",
        "isArea": false,
        "pref": "東京都",
        "scale": 30,
        "changedScale": "3",
        "lat": "35.63",
        "lon": "139.40"
    },
    {
        "addr": "八王子市大横町",
        "isArea": false,
        "pref": "東京都",
        "scale": 20,
        "changedScale": "2",
        "lat": "35.66",
        "lon": "139.33"
    },
    {
        "addr": "八王子市石川町",
        "isArea": false,
        "pref": "東京都",
        "scale": 20,
        "changedScale": "2",
        "lat": "35.67",
        "lon": "139.36"
    },
    {
        "addr": "調布市小島町",
        "isArea": false,
        "pref": "東京都",
        "scale": 30,
        "changedScale": "3",
        "lat": "35.65",
        "lon": "139.54"
    },
    {
        "addr": "調布市西つつじヶ丘",
        "isArea": false,
        "pref": "東京都",
        "scale": 30,
        "changedScale": "3",
        "lat": "35.66",
        "lon": "139.57"
    },
    {
        "addr": "町田市忠生",
        "isArea": false,
        "pref": "東京都",
        "scale": 30,
        "changedScale": "3",
        "lat": "35.58",
        "lon": "139.41"
    },
    {
        "addr": "町田市森野",
        "isArea": false,
        "pref": "東京都",
        "scale": 30,
        "changedScale": "3",
        "lat": "35.55",
        "lon": "139.44"
    },
    {
        "addr": "町田市本町田",
        "isArea": false,
        "pref": "東京都",
        "scale": 30,
        "changedScale": "3",
        "lat": "35.56",
        "lon": "139.44"
    },
    {
        "addr": "小金井市本町",
        "isArea": false,
        "pref": "東京都",
        "scale": 30,
        "changedScale": "3",
        "lat": "35.70",
        "lon": "139.50"
    },
    {
        "addr": "小平市小川町",
        "isArea": false,
        "pref": "東京都",
        "scale": 30,
        "changedScale": "3",
        "lat": "35.73",
        "lon": "139.48"
    },
    {
        "addr": "日野市神明",
        "isArea": false,
        "pref": "東京都",
        "scale": 30,
        "changedScale": "3",
        "lat": "35.67",
        "lon": "139.40"
    },